[
 {
   "name": "Allen Crags",
   "heightMetres": 785,
   "heightFt": "2575.4593175853",
   "gridReference": "NY236085",
   "gridZone": "NY",
   "gridEast": 23670,
   "gridNorth": 8528,
   "latitude": 54.466367,
   "longitude": -3.179175
 },
 {
   "name": "Angletarn Pikes (Angletarn Pikes North Top)",
   "heightMetres": 567,
   "heightFt": "1860.23622047244",
   "gridReference": "NY413148",
   "gridZone": "NY",
   "gridEast": 41330,
   "gridNorth": 14826,
   "latitude": 54.525312,
   "longitude": -2.907999
 },
 {
   "name": "Ard Crags",
   "heightMetres": 581,
   "heightFt": "1906.16797900262",
   "gridReference": "NY206197",
   "gridZone": "NY",
   "gridEast": 20693,
   "gridNorth": 19772,
   "latitude": 54.566938,
   "longitude": -3.228123
 },
 {
   "name": "Armboth Fell",
   "heightMetres": 475,
   "heightFt": "1558.39895013123",
   "gridReference": "NY295157",
   "gridZone": "NY",
   "gridEast": 29583,
   "gridNorth": 15740,
   "latitude": 54.532026,
   "longitude": -3.089686
 },
 {
   "name": "Arnison Crag",
   "heightMetres": 433,
   "heightFt": "1420.60367454068",
   "gridReference": "NY393149",
   "gridZone": "NY",
   "gridEast": 39356,
   "gridNorth": 14969,
   "latitude": 54.526364,
   "longitude": -2.938524
 },
 {
   "name": "Arthur's Pike",
   "heightMetres": 533,
   "heightFt": "1748.68766404199",
   "gridReference": "NY460206",
   "gridZone": "NY",
   "gridEast": 46073,
   "gridNorth": 20679,
   "latitude": 54.578435,
   "longitude": -2.835799
 },
 {
   "name": "Bakestall",
   "heightMetres": 673,
   "heightFt": "2208.00524934383",
   "gridReference": "NY266308",
   "gridZone": "NY",
   "gridEast": 26633,
   "gridNorth": 30856,
   "latitude": 54.667426,
   "longitude": -3.139049
 },
 {
   "name": "Bannerdale Crags",
   "heightMetres": 683,
   "heightFt": "2240.81364829396",
   "gridReference": "NY335290",
   "gridZone": "NY",
   "gridEast": 33528,
   "gridNorth": 29027,
   "latitude": 54.65195,
   "longitude": -3.031747
 },
 {
   "name": "Barf",
   "heightMetres": 469,
   "heightFt": "1538.71391076115",
   "gridReference": "NY214267",
   "gridZone": "NY",
   "gridEast": 21463,
   "gridNorth": 26740,
   "latitude": 54.629665,
   "longitude": -3.218084
 },
 {
   "name": "Barrow",
   "heightMetres": 455,
   "heightFt": "1492.78215223097",
   "gridReference": "NY227218",
   "gridZone": "NY",
   "gridEast": 22707,
   "gridNorth": 21821,
   "latitude": 54.58566,
   "longitude": -3.19752
 },
 {
   "name": "Base Brown",
   "heightMetres": 646,
   "heightFt": "2119.42257217848",
   "gridReference": "NY225114",
   "gridZone": "NY",
   "gridEast": 22514,
   "gridNorth": 11465,
   "latitude": 54.492581,
   "longitude": -3.197777
 },
 {
   "name": "Baystones (Wansfell)",
   "heightMetres": 486.9,
   "heightFt": "1597.4",
   "gridReference": "NY403051",
   "gridZone": "NY",
   "gridEast": 40313,
   "gridNorth": 5144,
   "latitude": 54.438194,
   "longitude": -2.921751
 },
 {
   "name": "Beda Fell (Beda Head)",
   "heightMetres": 509,
   "heightFt": "1669.94750656168",
   "gridReference": "NY428171",
   "gridZone": "NY",
   "gridEast": 42887,
   "gridNorth": 17163,
   "latitude": 54.54649,
   "longitude": -2.884399
 },
 {
   "name": "Binsey",
   "heightMetres": 447,
   "heightFt": "1466.53543307087",
   "gridReference": "NY225355",
   "gridZone": "NY",
   "gridEast": 22511,
   "gridNorth": 35529,
   "latitude": 54.708795,
   "longitude": -3.204188
 },
 {
   "name": "Birkhouse Moor",
   "heightMetres": 718,
   "heightFt": "2355.64304461942",
   "gridReference": "NY363159",
   "gridZone": "NY",
   "gridEast": 36341,
   "gridNorth": 15976,
   "latitude": 54.535042,
   "longitude": -2.98532
 },
 {
   "name": "Birks",
   "heightMetres": 622,
   "heightFt": "2040.68241469816",
   "gridReference": "NY380143",
   "gridZone": "NY",
   "gridEast": 38019,
   "gridNorth": 14357,
   "latitude": 54.520702,
   "longitude": -2.959051
 },
 {
   "name": "Black Fell",
   "heightMetres": 323,
   "heightFt": "1059.71128608924",
   "gridReference": "NY340015",
   "gridZone": "NY",
   "gridEast": 34021,
   "gridNorth": 1593,
   "latitude": 54.405503,
   "longitude": -3.017955
 },
 {
   "name": "Blake Fell",
   "heightMetres": 573,
   "heightFt": "1879.92125984252",
   "gridReference": "NY110196",
   "gridZone": "NY",
   "gridEast": 11049,
   "gridNorth": 19687,
   "latitude": 54.564569,
   "longitude": -3.377198
 },
 {
   "name": "Blea Rigg",
   "heightMetres": 541,
   "heightFt": "1774.9343832021",
   "gridReference": "NY301078",
   "gridZone": "NY",
   "gridEast": 30166,
   "gridNorth": 7835,
   "latitude": 54.461076,
   "longitude": -3.078806
 },
 {
   "name": "Bleaberry Fell",
   "heightMetres": 590,
   "heightFt": "1935.69553805774",
   "gridReference": "NY285195",
   "gridZone": "NY",
   "gridEast": 28577,
   "gridNorth": 19578,
   "latitude": 54.56637,
   "longitude": -3.106162
 },
 {
   "name": "Blencathra-Hallsfell Top",
   "heightMetres": 868,
   "heightFt": "2847.76902887139",
   "gridReference": "NY323277",
   "gridZone": "NY",
   "gridEast": 32345,
   "gridNorth": 27709,
   "latitude": 54.63995,
   "longitude": -3.049773
 },
 {
   "name": "Bonscale Pike",
   "heightMetres": 524,
   "heightFt": "1719.16010498688",
   "gridReference": "NY453200",
   "gridZone": "NY",
   "gridEast": 45347,
   "gridNorth": 20086,
   "latitude": 54.573028,
   "longitude": -2.846919
 },
 {
   "name": "Bowfell",
   "heightMetres": 902,
   "heightFt": "2959.31758530184",
   "gridReference": "NY244064",
   "gridZone": "NY",
   "gridEast": 24476,
   "gridNorth": 6452,
   "latitude": 54.447834,
   "longitude": -3.166212
 },
 {
   "name": "Bowscale Fell",
   "heightMetres": 702,
   "heightFt": "2303.14960629921",
   "gridReference": "NY333305",
   "gridZone": "NY",
   "gridEast": 33338,
   "gridNorth": 30542,
   "latitude": 54.665538,
   "longitude": -3.035037
 },
 {
   "name": "Brae Fell",
   "heightMetres": 586,
   "heightFt": "1922.57217847769",
   "gridReference": "NY288351",
   "gridZone": "NY",
   "gridEast": 28874,
   "gridNorth": 35160,
   "latitude": 54.70642,
   "longitude": -3.105361
 },
 {
   "name": "Brandreth",
   "heightMetres": 715,
   "heightFt": "2345.80052493438",
   "gridReference": "NY214119",
   "gridZone": "NY",
   "gridEast": 21453,
   "gridNorth": 11917,
   "latitude": 54.496479,
   "longitude": -3.214274
 },
 {
   "name": "Branstree",
   "heightMetres": 713,
   "heightFt": "2339.23884514436",
   "gridReference": "NY478099",
   "gridZone": "NY",
   "gridEast": 47801,
   "gridNorth": 9972,
   "latitude": 54.482402,
   "longitude": -2.807168
 },
 {
   "name": "Brim Fell",
   "heightMetres": 796,
   "heightFt": "2611.54855643045",
   "gridReference": "SD270985",
   "gridZone": "SD",
   "gridEast": 27075,
   "gridNorth": 98558,
   "latitude": 54.377283,
   "longitude": -3.124197
 },
 {
   "name": "Brock Crags",
   "heightMetres": 561,
   "heightFt": "1840.55118110236",
   "gridReference": "NY416136",
   "gridZone": "NY",
   "gridEast": 41665,
   "gridNorth": 13663,
   "latitude": 54.5149,
   "longitude": -2.902593
 },
 {
   "name": "Broom Fell",
   "heightMetres": 511,
   "heightFt": "1676.50918635171",
   "gridReference": "NY194271",
   "gridZone": "NY",
   "gridEast": 19443,
   "gridNorth": 27192,
   "latitude": 54.633407,
   "longitude": -3.249491
 },
 {
   "name": "Buckbarrow",
   "heightMetres": 423,
   "heightFt": "1387.79527559055",
   "gridReference": "NY135061",
   "gridZone": "NY",
   "gridEast": 13568,
   "gridNorth": 6125,
   "latitude": 54.443156,
   "longitude": -3.334275
 },
 {
   "name": "Burnbank Fell",
   "heightMetres": 475,
   "heightFt": "1558.39895013123",
   "gridReference": "NY110209",
   "gridZone": "NY",
   "gridEast": 11000,
   "gridNorth": 20954,
   "latitude": 54.575943,
   "longitude": -3.37834
 },
 {
   "name": "Calf Crag",
   "heightMetres": 537,
   "heightFt": "1761.81102362205",
   "gridReference": "NY301104",
   "gridZone": "NY",
   "gridEast": 30161,
   "gridNorth": 10412,
   "latitude": 54.484231,
   "longitude": -3.079493
 },
 {
   "name": "Carl Side",
   "heightMetres": 746,
   "heightFt": "2447.50656167979",
   "gridReference": "NY254280",
   "gridZone": "NY",
   "gridEast": 25495,
   "gridNorth": 28088,
   "latitude": 54.642389,
   "longitude": -3.155984
 },
 {
   "name": "Carrock Fell",
   "heightMetres": 663,
   "heightFt": "2175.1968503937",
   "gridReference": "NY341336",
   "gridZone": "NY",
   "gridEast": 34168,
   "gridNorth": 33640,
   "latitude": 54.693484,
   "longitude": -3.02287
 },
 {
   "name": "Castle Crag",
   "heightMetres": 290,
   "heightFt": "951.443569553806",
   "gridReference": "NY249159",
   "gridZone": "NY",
   "gridEast": 24931,
   "gridNorth": 15943,
   "latitude": 54.533181,
   "longitude": -3.161612
 },
 {
   "name": "Catbells",
   "heightMetres": 451,
   "heightFt": "1479.65879265092",
   "gridReference": "NY244198",
   "gridZone": "NY",
   "gridEast": 24408,
   "gridNorth": 19862,
   "latitude": 54.568316,
   "longitude": -3.1707
 },
 {
   "name": "Catstye Cam",
   "heightMetres": 890,
   "heightFt": "2919.94750656168",
   "gridReference": "NY348158",
   "gridZone": "NY",
   "gridEast": 34811,
   "gridNorth": 15823,
   "latitude": 54.533472,
   "longitude": -3.008928
 },
 {
   "name": "Causey Pike",
   "heightMetres": 637,
   "heightFt": "2089.89501312336",
   "gridReference": "NY218208",
   "gridZone": "NY",
   "gridEast": 21874,
   "gridNorth": 20852,
   "latitude": 54.576825,
   "longitude": -3.210149
 },
 {
   "name": "Caw Fell",
   "heightMetres": 697,
   "heightFt": "2286.74540682415",
   "gridReference": "NY132109",
   "gridZone": "NY",
   "gridEast": 13208,
   "gridNorth": 10997,
   "latitude": 54.486868,
   "longitude": -3.341256
 },
 {
   "name": "Clough Head",
   "heightMetres": 726,
   "heightFt": "2381.88976377953",
   "gridReference": "NY333225",
   "gridZone": "NY",
   "gridEast": 33393,
   "gridNorth": 22542,
   "latitude": 54.593661,
   "longitude": -3.032362
 },
 {
   "name": "Cold Pike",
   "heightMetres": 701,
   "heightFt": "2299.8687664042",
   "gridReference": "NY262036",
   "gridZone": "NY",
   "gridEast": 26287,
   "gridNorth": 3614,
   "latitude": 54.4226,
   "longitude": -3.137582
 },
 {
   "name": "Crag Fell",
   "heightMetres": 523,
   "heightFt": "1715.87926509186",
   "gridReference": "NY097143",
   "gridZone": "NY",
   "gridEast": 9723,
   "gridNorth": 14386,
   "latitude": 54.516708,
   "longitude": -3.396072
 },
 {
   "name": "Crag Hill (Eel Crag)",
   "heightMetres": 839,
   "heightFt": "2752.62467191601",
   "gridReference": "NY192203",
   "gridZone": "NY",
   "gridEast": 19273,
   "gridNorth": 20335,
   "latitude": 54.571771,
   "longitude": -3.250235
 },
 {
   "name": "Crinkle Crags-Long Top (Second Crinkle)",
   "heightMetres": 859,
   "heightFt": "2818.24146981627",
   "gridReference": "NY248048",
   "gridZone": "NY",
   "gridEast": 24865,
   "gridNorth": 4873,
   "latitude": 54.433704,
   "longitude": -3.159813
 },
 {
   "name": "Dale Head",
   "heightMetres": 753,
   "heightFt": "2470.47244094488",
   "gridReference": "NY222153",
   "gridZone": "NY",
   "gridEast": 22288,
   "gridNorth": 15326,
   "latitude": 54.527238,
   "longitude": -3.202284
 },
 {
   "name": "Dodd (Skiddaw)",
   "heightMetres": 502,
   "heightFt": "1646.98162729659",
   "gridReference": "NY244273",
   "gridZone": "NY",
   "gridEast": 24441,
   "gridNorth": 27351,
   "latitude": 54.63561,
   "longitude": -3.172122
 },
 {
   "name": "Dollywaggon Pike",
   "heightMetres": 858,
   "heightFt": "2814.96062992126",
   "gridReference": "NY346130",
   "gridZone": "NY",
   "gridEast": 34626,
   "gridNorth": 13068,
   "latitude": 54.508693,
   "longitude": -3.011175
 },
 {
   "name": "Dove Crag",
   "heightMetres": 792,
   "heightFt": "2598.42519685039",
   "gridReference": "NY374104",
   "gridZone": "NY",
   "gridEast": 37455,
   "gridNorth": 10436,
   "latitude": 54.4854,
   "longitude": -2.96693
 },
 {
   "name": "Dow Crag",
   "heightMetres": 778,
   "heightFt": "2552.49343832021",
   "gridReference": "SD262977",
   "gridZone": "SD",
   "gridEast": 26253,
   "gridNorth": 97794,
   "latitude": 54.3703,
   "longitude": -3.136659
 },
 {
   "name": "Eagle Crag",
   "heightMetres": 525,
   "heightFt": "1722.44094488189",
   "gridReference": "NY275121",
   "gridZone": "NY",
   "gridEast": 27532,
   "gridNorth": 12103,
   "latitude": 54.499056,
   "longitude": -3.12048
 },
 {
   "name": "Esk Pike",
   "heightMetres": 885,
   "heightFt": "2903.54330708661",
   "gridReference": "NY236075",
   "gridZone": "NY",
   "gridEast": 23650,
   "gridNorth": 7505,
   "latitude": 54.457172,
   "longitude": -3.179219
 },
 {
   "name": "Fairfield",
   "heightMetres": 873,
   "heightFt": "2864.17322834646",
   "gridReference": "NY358117",
   "gridZone": "NY",
   "gridEast": 35873,
   "gridNorth": 11757,
   "latitude": 54.497072,
   "longitude": -2.991633
 },
 {
   "name": "Fellbarrow-Mosser Fell",
   "heightMetres": 416,
   "heightFt": "1364.82939632546",
   "gridReference": "NY132242",
   "gridZone": "NY",
   "gridEast": 13239,
   "gridNorth": 24236,
   "latitude": 54.60582,
   "longitude": -3.344699
 },
 {
   "name": "Fleetwith Pike",
   "heightMetres": 648.9,
   "heightFt": "2128.9",
   "gridReference": "NY205141",
   "gridZone": "NY",
   "gridEast": 20591,
   "gridNorth": 14167,
   "latitude": 54.516562,
   "longitude": -3.22818
 },
 {
   "name": "Froswick",
   "heightMetres": 720,
   "heightFt": "2362.20472440945",
   "gridReference": "NY435085",
   "gridZone": "NY",
   "gridEast": 43520,
   "gridNorth": 8526,
   "latitude": 54.468949,
   "longitude": -2.872959
 },
 {
   "name": "Gavel Fell",
   "heightMetres": 526,
   "heightFt": "1725.7217847769",
   "gridReference": "NY116183",
   "gridZone": "NY",
   "gridEast": 11696,
   "gridNorth": 18385,
   "latitude": 54.552984,
   "longitude": -3.366804
 },
 {
   "name": "Gibson Knott",
   "heightMetres": 420,
   "heightFt": "1377.95275590551",
   "gridReference": "NY316100",
   "gridZone": "NY",
   "gridEast": 31689,
   "gridNorth": 10037,
   "latitude": 54.48107,
   "longitude": -3.055825
 },
 {
   "name": "Glaramara",
   "heightMetres": 783,
   "heightFt": "2568.89763779528",
   "gridReference": "NY245104",
   "gridZone": "NY",
   "gridEast": 24599,
   "gridNorth": 10457,
   "latitude": 54.483839,
   "longitude": -3.165338
 },
 {
   "name": "Glenridding Dodd",
   "heightMetres": 442,
   "heightFt": "1450.1312335958",
   "gridReference": "NY380175",
   "gridZone": "NY",
   "gridEast": 38050,
   "gridNorth": 17558,
   "latitude": 54.54947,
   "longitude": -2.959246
 },
 {
   "name": "Gowbarrow Fell (Wainwright summit)",
   "heightMetres": 481.2,
   "heightFt": "1578.7",
   "gridReference": "NY407218",
   "gridZone": "NY",
   "gridEast": 40761,
   "gridNorth": 21822,
   "latitude": 54.58811,
   "longitude": -2.918201
 },
 {
   "name": "Grange Fell (Brund Fell)",
   "heightMetres": 416,
   "heightFt": "1364.82939632546",
   "gridReference": "NY264162",
   "gridZone": "NY",
   "gridEast": 26467,
   "gridNorth": 16276,
   "latitude": 54.536399,
   "longitude": -3.137963
 },
 {
   "name": "Grasmoor",
   "heightMetres": 852,
   "heightFt": "2795.27559055118",
   "gridReference": "NY174203",
   "gridZone": "NY",
   "gridEast": 17484,
   "gridNorth": 20352,
   "latitude": 54.571635,
   "longitude": -3.277905
 },
 {
   "name": "Gray Crag",
   "heightMetres": 699,
   "heightFt": "2293.30708661417",
   "gridReference": "NY427117",
   "gridZone": "NY",
   "gridEast": 42755,
   "gridNorth": 11710,
   "latitude": 54.497475,
   "longitude": -2.885379
 },
 {
   "name": "Graystones",
   "heightMetres": 452,
   "heightFt": "1482.93963254593",
   "gridReference": "NY176266",
   "gridZone": "NY",
   "gridEast": 17615,
   "gridNorth": 26622,
   "latitude": 54.627991,
   "longitude": -3.277642
 },
 {
   "name": "Great Borne",
   "heightMetres": 616,
   "heightFt": "2020.99737532808",
   "gridReference": "NY123163",
   "gridZone": "NY",
   "gridEast": 12392,
   "gridNorth": 16359,
   "latitude": 54.534903,
   "longitude": -3.355442
 },
 {
   "name": "Great Calva",
   "heightMetres": 690,
   "heightFt": "2263.77952755906",
   "gridReference": "NY290311",
   "gridZone": "NY",
   "gridEast": 29088,
   "gridNorth": 31188,
   "latitude": 54.670761,
   "longitude": -3.101073
 },
 {
   "name": "Great Carrs",
   "heightMetres": 785,
   "heightFt": "2575.4593175853",
   "gridReference": "NY270009",
   "gridZone": "NY",
   "gridEast": 27078,
   "gridNorth": 950,
   "latitude": 54.398777,
   "longitude": -3.124738
 },
 {
   "name": "Great Cockup",
   "heightMetres": 526,
   "heightFt": "1725.7217847769",
   "gridReference": "NY273333",
   "gridZone": "NY",
   "gridEast": 27336,
   "gridNorth": 33321,
   "latitude": 54.689677,
   "longitude": -3.128766
 },
 {
   "name": "Great Crag (Stonethwaite)",
   "heightMetres": 449,
   "heightFt": "1473.09711286089",
   "gridReference": "NY270146",
   "gridZone": "NY",
   "gridEast": 27000,
   "gridNorth": 14686,
   "latitude": 54.522189,
   "longitude": -3.129333
 },
 {
   "name": "Great Dodd",
   "heightMetres": 857,
   "heightFt": "2811.67979002625",
   "gridReference": "NY342205",
   "gridZone": "NY",
   "gridEast": 34203,
   "gridNorth": 20530,
   "latitude": 54.575689,
   "longitude": -3.019377
 },
 {
   "name": "Great End",
   "heightMetres": 910,
   "heightFt": "2985.56430446194",
   "gridReference": "NY226083",
   "gridZone": "NY",
   "gridEast": 22672,
   "gridNorth": 8387,
   "latitude": 54.464949,
   "longitude": -3.194532
 },
 {
   "name": "Great Gable",
   "heightMetres": 899,
   "heightFt": "2949.4750656168",
   "gridReference": "NY211103",
   "gridZone": "NY",
   "gridEast": 21100,
   "gridNorth": 10321,
   "latitude": 54.482084,
   "longitude": -3.219296
 },
 {
   "name": "Great Mell Fell",
   "heightMetres": 537,
   "heightFt": "1761.81102362205",
   "gridReference": "NY396253",
   "gridZone": "NY",
   "gridEast": 39680,
   "gridNorth": 25367,
   "latitude": 54.619837,
   "longitude": -2.935657
 },
 {
   "name": "Great Rigg",
   "heightMetres": 766,
   "heightFt": "2513.12335958005",
   "gridReference": "NY355104",
   "gridZone": "NY",
   "gridEast": 35592,
   "gridNorth": 10407,
   "latitude": 54.484906,
   "longitude": -2.995676
 },
 {
   "name": "Great Sca Fell",
   "heightMetres": 651,
   "heightFt": "2135.82677165354",
   "gridReference": "NY291339",
   "gridZone": "NY",
   "gridEast": 29136,
   "gridNorth": 33901,
   "latitude": 54.695145,
   "longitude": -3.100989
 },
 {
   "name": "Green Crag",
   "heightMetres": 488.7,
   "heightFt": "1603.3",
   "gridReference": "SD200982",
   "gridZone": "SD",
   "gridEast": 20013,
   "gridNorth": 98275,
   "latitude": 54.373688,
   "longitude": -3.232801
 },
 {
   "name": "Green Gable",
   "heightMetres": 801,
   "heightFt": "2627.95275590551",
   "gridReference": "NY214107",
   "gridZone": "NY",
   "gridEast": 21465,
   "gridNorth": 10717,
   "latitude": 54.485699,
   "longitude": -3.213769
 },
 {
   "name": "Grey Crag (Sleddale Fell)",
   "heightMetres": 638,
   "heightFt": "2093.17585301837",
   "gridReference": "NY497072",
   "gridZone": "NY",
   "gridEast": 49713,
   "gridNorth": 7221,
   "latitude": 54.457874,
   "longitude": -2.777191
 },
 {
   "name": "Grey Friar",
   "heightMetres": 773,
   "heightFt": "2536.08923884514",
   "gridReference": "NY260003",
   "gridZone": "NY",
   "gridEast": 26008,
   "gridNorth": 361,
   "latitude": 54.39333,
   "longitude": -3.14107
 },
 {
   "name": "Grey Knotts",
   "heightMetres": 697,
   "heightFt": "2286.74540682415",
   "gridReference": "NY217125",
   "gridZone": "NY",
   "gridEast": 21729,
   "gridNorth": 12567,
   "latitude": 54.502362,
   "longitude": -3.210186
 },
 {
   "name": "Grike",
   "heightMetres": 488,
   "heightFt": "1601.0498687664",
   "gridReference": "NY084140",
   "gridZone": "NY",
   "gridEast": 8499,
   "gridNorth": 14083,
   "latitude": 54.513766,
   "longitude": -3.41488
 },
 {
   "name": "Grisedale Pike",
   "heightMetres": 791,
   "heightFt": "2595.14435695538",
   "gridReference": "NY198225",
   "gridZone": "NY",
   "gridEast": 19840,
   "gridNorth": 22548,
   "latitude": 54.591745,
   "longitude": -3.242071
 },
 {
   "name": "Hallin Fell",
   "heightMetres": 388,
   "heightFt": "1272.96587926509",
   "gridReference": "NY433198",
   "gridZone": "NY",
   "gridEast": 43302,
   "gridNorth": 19820,
   "latitude": 54.570412,
   "longitude": -2.878498
 },
 {
   "name": "Hard Knott",
   "heightMetres": 549,
   "heightFt": "1801.1811023622",
   "gridReference": "NY231023",
   "gridZone": "NY",
   "gridEast": 23187,
   "gridNorth": 2377,
   "latitude": 54.411026,
   "longitude": -3.185029
 },
 {
   "name": "Harrison Stickle",
   "heightMetres": 736,
   "heightFt": "2414.69816272966",
   "gridReference": "NY281074",
   "gridZone": "NY",
   "gridEast": 28172,
   "gridNorth": 7401,
   "latitude": 54.456898,
   "longitude": -3.109455
 },
 {
   "name": "Hart Crag",
   "heightMetres": 822,
   "heightFt": "2696.85039370079",
   "gridReference": "NY369112",
   "gridZone": "NY",
   "gridEast": 36903,
   "gridNorth": 11207,
   "latitude": 54.492259,
   "longitude": -2.975615
 },
 {
   "name": "Hart Side",
   "heightMetres": 756,
   "heightFt": "2480.31496062992",
   "gridReference": "NY359197",
   "gridZone": "NY",
   "gridEast": 35901,
   "gridNorth": 19730,
   "latitude": 54.568719,
   "longitude": -2.992938
 },
 {
   "name": "Harter Fell (Eskdale)",
   "heightMetres": 654,
   "heightFt": "2145.66929133858",
   "gridReference": "SD218997",
   "gridZone": "SD",
   "gridEast": 21875,
   "gridNorth": 99714,
   "latitude": 54.386898,
   "longitude": -3.204538
 },
 {
   "name": "Harter Fell (Mardale)",
   "heightMetres": 779,
   "heightFt": "2555.77427821522",
   "gridReference": "NY459093",
   "gridZone": "NY",
   "gridEast": 45969,
   "gridNorth": 9327,
   "latitude": 54.476414,
   "longitude": -2.835323
 },
 {
   "name": "Hartsop Above How (Gill Crag-Hartsop Above How)",
   "heightMetres": 581,
   "heightFt": "1906.16797900262",
   "gridReference": "NY383120",
   "gridZone": "NY",
   "gridEast": 38318,
   "gridNorth": 12004,
   "latitude": 54.499595,
   "longitude": -2.953939
 },
 {
   "name": "Hartsop Dodd",
   "heightMetres": 618,
   "heightFt": "2027.55905511811",
   "gridReference": "NY411118",
   "gridZone": "NY",
   "gridEast": 41133,
   "gridNorth": 11849,
   "latitude": 54.498538,
   "longitude": -2.910448
 },
 {
   "name": "Haycock",
   "heightMetres": 797,
   "heightFt": "2614.82939632546",
   "gridReference": "NY144107",
   "gridZone": "NY",
   "gridEast": 14478,
   "gridNorth": 10717,
   "latitude": 54.484568,
   "longitude": -3.321576
 },
 {
   "name": "Haystacks (Buttermere)",
   "heightMetres": 597,
   "heightFt": "1958.66141732283",
   "gridReference": "NY193131",
   "gridZone": "NY",
   "gridEast": 19334,
   "gridNorth": 13152,
   "latitude": 54.507243,
   "longitude": -3.247321
 },
 {
   "name": "Helm Crag",
   "heightMetres": 405,
   "heightFt": "1328.74015748031",
   "gridReference": "NY326093",
   "gridZone": "NY",
   "gridEast": 32651,
   "gridNorth": 9350,
   "latitude": 54.475026,
   "longitude": -3.040823
 },
 {
   "name": "Helvellyn",
   "heightMetres": 950,
   "heightFt": "3116.79790026247",
   "gridReference": "NY342151",
   "gridZone": "NY",
   "gridEast": 34245,
   "gridNorth": 15111,
   "latitude": 54.527001,
   "longitude": -3.017514
 },
 {
   "name": "Hen Comb",
   "heightMetres": 509,
   "heightFt": "1669.94750656168",
   "gridReference": "NY132181",
   "gridZone": "NY",
   "gridEast": 13214,
   "gridNorth": 18118,
   "latitude": 54.550848,
   "longitude": -3.343261
 },
 {
   "name": "Heron Pike (Rydal)",
   "heightMetres": 612,
   "heightFt": "2007.87401574803",
   "gridReference": "NY355083",
   "gridZone": "NY",
   "gridEast": 35598,
   "gridNorth": 8310,
   "latitude": 54.466063,
   "longitude": -2.995126
 },
 {
   "name": "High Crag (Buttermere)",
   "heightMetres": 744,
   "heightFt": "2440.94488188976",
   "gridReference": "NY180139",
   "gridZone": "NY",
   "gridEast": 18048,
   "gridNorth": 13997,
   "latitude": 54.514628,
   "longitude": -3.267412
 },
 {
   "name": "High Hartsop Dodd",
   "heightMetres": 519,
   "heightFt": "1702.75590551181",
   "gridReference": "NY393107",
   "gridZone": "NY",
   "gridEast": 39354,
   "gridNorth": 10768,
   "latitude": 54.488614,
   "longitude": -2.93769
 },
 {
   "name": "High Pike (Caldbeck)",
   "heightMetres": 658,
   "heightFt": "2158.79265091864",
   "gridReference": "NY318350",
   "gridZone": "NY",
   "gridEast": 31876,
   "gridNorth": 35001,
   "latitude": 54.705407,
   "longitude": -3.058742
 },
 {
   "name": "High Pike (Scandale)",
   "heightMetres": 656,
   "heightFt": "2152.23097112861",
   "gridReference": "NY374088",
   "gridZone": "NY",
   "gridEast": 37442,
   "gridNorth": 8831,
   "latitude": 54.470976,
   "longitude": -2.966791
 },
 {
   "name": "High Raise (High Raise (High White Stones))",
   "heightMetres": 762,
   "heightFt": "2500",
   "gridReference": "NY280095",
   "gridZone": "NY",
   "gridEast": 28088,
   "gridNorth": 9524,
   "latitude": 54.475962,
   "longitude": -3.111268
 },
 {
   "name": "High Raise (High Street)",
   "heightMetres": 802,
   "heightFt": "2631.23359580052",
   "gridReference": "NY448134",
   "gridZone": "NY",
   "gridEast": 44823,
   "gridNorth": 13453,
   "latitude": 54.513367,
   "longitude": -2.853779
 },
 {
   "name": "High Rigg (Naddle Fell)",
   "heightMetres": 357,
   "heightFt": "1171.25984251969",
   "gridReference": "NY308219",
   "gridZone": "NY",
   "gridEast": 30851,
   "gridNorth": 21998,
   "latitude": 54.588432,
   "longitude": -3.071568
 },
 {
   "name": "High Seat",
   "heightMetres": 608,
   "heightFt": "1994.75065616798",
   "gridReference": "NY287180",
   "gridZone": "NY",
   "gridEast": 28708,
   "gridNorth": 18047,
   "latitude": 54.552632,
   "longitude": -3.103765
 },
 {
   "name": "High Spy",
   "heightMetres": 653.1,
   "heightFt": "2142.7",
   "gridReference": "NY234162",
   "gridZone": "NY",
   "gridEast": 23413,
   "gridNorth": 16233,
   "latitude": 54.535559,
   "longitude": -3.185141
 },
 {
   "name": "High Stile",
   "heightMetres": 806,
   "heightFt": "2644.35695538058",
   "gridReference": "NY167147",
   "gridZone": "NY",
   "gridEast": 16739,
   "gridNorth": 14788,
   "latitude": 54.521522,
   "longitude": -3.287851
 },
 {
   "name": "High Street",
   "heightMetres": 828,
   "heightFt": "2716.53543307087",
   "gridReference": "NY440110",
   "gridZone": "NY",
   "gridEast": 44076,
   "gridNorth": 11050,
   "latitude": 54.491691,
   "longitude": -2.86486
 },
 {
   "name": "High Tove",
   "heightMetres": 515,
   "heightFt": "1689.63254593176",
   "gridReference": "NY289165",
   "gridZone": "NY",
   "gridEast": 28914,
   "gridNorth": 16511,
   "latitude": 54.53886,
   "longitude": -3.100209
 },
 {
   "name": "Hindscarth",
   "heightMetres": 727,
   "heightFt": "2385.17060367454",
   "gridReference": "NY215165",
   "gridZone": "NY",
   "gridEast": 21566,
   "gridNorth": 16517,
   "latitude": 54.537828,
   "longitude": -3.213755
 },
 {
   "name": "Holme Fell",
   "heightMetres": 317,
   "heightFt": "1040.02624671916",
   "gridReference": "NY315006",
   "gridZone": "NY",
   "gridEast": 31502,
   "gridNorth": 606,
   "latitude": 54.396301,
   "longitude": -3.056527
 },
 {
   "name": "Hopegill Head",
   "heightMetres": 770,
   "heightFt": "2526.2467191601",
   "gridReference": "NY185221",
   "gridZone": "NY",
   "gridEast": 18567,
   "gridNorth": 22163,
   "latitude": 54.588082,
   "longitude": -3.26166
 },
 {
   "name": "Ill Bell",
   "heightMetres": 757,
   "heightFt": "2483.59580052493",
   "gridReference": "NY436077",
   "gridZone": "NY",
   "gridEast": 43648,
   "gridNorth": 7753,
   "latitude": 54.462017,
   "longitude": -2.870837
 },
 {
   "name": "Illgill Head",
   "heightMetres": 609,
   "heightFt": "1998.03149606299",
   "gridReference": "NY168049",
   "gridZone": "NY",
   "gridEast": 16872,
   "gridNorth": 4909,
   "latitude": 54.432782,
   "longitude": -3.283
 },
 {
   "name": "Kentmere Pike",
   "heightMetres": 730,
   "heightFt": "2395.01312335958",
   "gridReference": "NY465077",
   "gridZone": "NY",
   "gridEast": 46553,
   "gridNorth": 7791,
   "latitude": 54.462673,
   "longitude": -2.826033
 },
 {
   "name": "Kidsty Pike",
   "heightMetres": 780,
   "heightFt": "2559.05511811024",
   "gridReference": "NY447125",
   "gridZone": "NY",
   "gridEast": 44736,
   "gridNorth": 12580,
   "latitude": 54.505513,
   "longitude": -2.854959
 },
 {
   "name": "Kirk Fell",
   "heightMetres": 802,
   "heightFt": "2631.23359580052",
   "gridReference": "NY194104",
   "gridZone": "NY",
   "gridEast": 19494,
   "gridNorth": 10487,
   "latitude": 54.483323,
   "longitude": -3.244123
 },
 {
   "name": "Knott",
   "heightMetres": 710,
   "heightFt": "2329.39632545932",
   "gridReference": "NY296329",
   "gridZone": "NY",
   "gridEast": 29616,
   "gridNorth": 32985,
   "latitude": 54.686982,
   "longitude": -3.093322
 },
 {
   "name": "Knott Rigg",
   "heightMetres": 556,
   "heightFt": "1824.1469816273",
   "gridReference": "NY197188",
   "gridZone": "NY",
   "gridEast": 19740,
   "gridNorth": 18872,
   "latitude": 54.558701,
   "longitude": -3.242613
 },
 {
   "name": "Lank Rigg",
   "heightMetres": 541,
   "heightFt": "1774.9343832021",
   "gridReference": "NY091119",
   "gridZone": "NY",
   "gridEast": 9163,
   "gridNorth": 11958,
   "latitude": 54.494793,
   "longitude": -3.403972
 },
 {
   "name": "Latrigg",
   "heightMetres": 368,
   "heightFt": "1207.34908136483",
   "gridReference": "NY279246",
   "gridZone": "NY",
   "gridEast": 27921,
   "gridNorth": 24699,
   "latitude": 54.612291,
   "longitude": -3.117565
 },
 {
   "name": "Ling Fell",
   "heightMetres": 373,
   "heightFt": "1223.7532808399",
   "gridReference": "NY179285",
   "gridZone": "NY",
   "gridEast": 17993,
   "gridNorth": 28536,
   "latitude": 54.645249,
   "longitude": -3.272325
 },
 {
   "name": "Lingmell",
   "heightMetres": 807,
   "heightFt": "2647.63779527559",
   "gridReference": "NY209081",
   "gridZone": "NY",
   "gridEast": 20933,
   "gridNorth": 8178,
   "latitude": 54.462803,
   "longitude": -3.2213
 },
 {
   "name": "Lingmoor Fell (Lingmoor Fell-Brown How)",
   "heightMetres": 469,
   "heightFt": "1538.71391076115",
   "gridReference": "NY302046",
   "gridZone": "NY",
   "gridEast": 30272,
   "gridNorth": 4605,
   "latitude": 54.432067,
   "longitude": -3.07641
 },
 {
   "name": "Little Hart Crag (Little Hart Crag-West Top)",
   "heightMetres": 637,
   "heightFt": "2089.89501312336",
   "gridReference": "NY387100",
   "gridZone": "NY",
   "gridEast": 38730,
   "gridNorth": 10031,
   "latitude": 54.481916,
   "longitude": -2.947169
 },
 {
   "name": "Little Mell Fell",
   "heightMetres": 505,
   "heightFt": "1656.82414698163",
   "gridReference": "NY423240",
   "gridZone": "NY",
   "gridEast": 42323,
   "gridNorth": 24018,
   "latitude": 54.608024,
   "longitude": -2.894465
 },
 {
   "name": "Loadpot Hill",
   "heightMetres": 672,
   "heightFt": "2204.72440944882",
   "gridReference": "NY456180",
   "gridZone": "NY",
   "gridEast": 45636,
   "gridNorth": 18047,
   "latitude": 54.554737,
   "longitude": -2.842072
 },
 {
   "name": "Loft Crag",
   "heightMetres": 680,
   "heightFt": "2230.97112860892",
   "gridReference": "NY277071",
   "gridZone": "NY",
   "gridEast": 27745,
   "gridNorth": 7133,
   "latitude": 54.454429,
   "longitude": -3.115975
 },
 {
   "name": "Long Side",
   "heightMetres": 734,
   "heightFt": "2408.13648293963",
   "gridReference": "NY248284",
   "gridZone": "NY",
   "gridEast": 24879,
   "gridNorth": 28444,
   "latitude": 54.645496,
   "longitude": -3.165618
 },
 {
   "name": "Longlands Fell",
   "heightMetres": 483,
   "heightFt": "1584.64566929134",
   "gridReference": "NY275354",
   "gridZone": "NY",
   "gridEast": 27592,
   "gridNorth": 35402,
   "latitude": 54.708411,
   "longitude": -3.125313
 },
 {
   "name": "Lonscale Fell",
   "heightMetres": 715,
   "heightFt": "2345.80052493438",
   "gridReference": "NY285271",
   "gridZone": "NY",
   "gridEast": 28544,
   "gridNorth": 27145,
   "latitude": 54.634357,
   "longitude": -3.108518
 },
 {
   "name": "Lord's Seat",
   "heightMetres": 552,
   "heightFt": "1811.02362204724",
   "gridReference": "NY204265",
   "gridZone": "NY",
   "gridEast": 20433,
   "gridNorth": 26553,
   "latitude": 54.627823,
   "longitude": -3.233984
 },
 {
   "name": "Loughrigg Fell",
   "heightMetres": 335,
   "heightFt": "1099.0813648294",
   "gridReference": "NY346051",
   "gridZone": "NY",
   "gridEast": 34695,
   "gridNorth": 5139,
   "latitude": 54.437454,
   "longitude": -3.008355
 },
 {
   "name": "Low Fell",
   "heightMetres": 423,
   "heightFt": "1387.79527559055",
   "gridReference": "NY137226",
   "gridZone": "NY",
   "gridEast": 13731,
   "gridNorth": 22617,
   "latitude": 54.591358,
   "longitude": -3.336608
 },
 {
   "name": "Low Pike",
   "heightMetres": 508,
   "heightFt": "1666.66666666667",
   "gridReference": "NY373078",
   "gridZone": "NY",
   "gridEast": 37351,
   "gridNorth": 7841,
   "latitude": 54.462069,
   "longitude": -2.967985
 },
 {
   "name": "Maiden Moor",
   "heightMetres": 575,
   "heightFt": "1886.48293963255",
   "gridReference": "NY236181",
   "gridZone": "NY",
   "gridEast": 23676,
   "gridNorth": 18189,
   "latitude": 54.553174,
   "longitude": -3.181585
 },
 {
   "name": "Mardale Ill Bell",
   "heightMetres": 760,
   "heightFt": "2493.43832020997",
   "gridReference": "NY447101",
   "gridZone": "NY",
   "gridEast": 44761,
   "gridNorth": 10121,
   "latitude": 54.483418,
   "longitude": -2.854112
 },
 {
   "name": "Meal Fell",
   "heightMetres": 550,
   "heightFt": "1804.46194225722",
   "gridReference": "NY283337",
   "gridZone": "NY",
   "gridEast": 28300,
   "gridNorth": 33764,
   "latitude": 54.693795,
   "longitude": -3.113923
 },
 {
   "name": "Mellbreak (Mellbreak South Top)",
   "heightMetres": 512,
   "heightFt": "1679.79002624672",
   "gridReference": "NY148186",
   "gridZone": "NY",
   "gridEast": 14841,
   "gridNorth": 18614,
   "latitude": 54.555581,
   "longitude": -3.318258
 },
 {
   "name": "Middle Dodd",
   "heightMetres": 654,
   "heightFt": "2145.66929133858",
   "gridReference": "NY397095",
   "gridZone": "NY",
   "gridEast": 39735,
   "gridNorth": 9575,
   "latitude": 54.477939,
   "longitude": -2.931566
 },
 {
   "name": "Middle Fell",
   "heightMetres": 582,
   "heightFt": "1909.44881889764",
   "gridReference": "NY150072",
   "gridZone": "NY",
   "gridEast": 15077,
   "gridNorth": 7220,
   "latitude": 54.453249,
   "longitude": -3.311327
 },
 {
   "name": "Mungrisdale Common",
   "heightMetres": 633,
   "heightFt": "2076.77165354331",
   "gridReference": "NY310292",
   "gridZone": "NY",
   "gridEast": 31054,
   "gridNorth": 29229,
   "latitude": 54.653432,
   "longitude": -3.070132
 },
 {
   "name": "Nab Scar",
   "heightMetres": 450,
   "heightFt": "1476.37795275591",
   "gridReference": "NY355072",
   "gridZone": "NY",
   "gridEast": 35537,
   "gridNorth": 7237,
   "latitude": 54.456414,
   "longitude": -2.995833
 },
 {
   "name": "Nethermost Pike",
   "heightMetres": 891,
   "heightFt": "2923.22834645669",
   "gridReference": "NY343142",
   "gridZone": "NY",
   "gridEast": 34366,
   "gridNorth": 14218,
   "latitude": 54.518993,
   "longitude": -3.015446
 },
 {
   "name": "Outerside",
   "heightMetres": 568,
   "heightFt": "1863.51706036745",
   "gridReference": "NY211214",
   "gridZone": "NY",
   "gridEast": 21107,
   "gridNorth": 21460,
   "latitude": 54.582169,
   "longitude": -3.222175
 },
 {
   "name": "Pavey Ark",
   "heightMetres": 700,
   "heightFt": "2296.58792650919",
   "gridReference": "NY284079",
   "gridZone": "NY",
   "gridEast": 28455,
   "gridNorth": 7908,
   "latitude": 54.461494,
   "longitude": -3.105214
 },
 {
   "name": "Pike of Blisco",
   "heightMetres": 705,
   "heightFt": "2312.99212598425",
   "gridReference": "NY271042",
   "gridZone": "NY",
   "gridEast": 27118,
   "gridNorth": 4214,
   "latitude": 54.428111,
   "longitude": -3.124925
 },
 {
   "name": "Pike of Stickle",
   "heightMetres": 709,
   "heightFt": "2326.1154855643",
   "gridReference": "NY273073",
   "gridZone": "NY",
   "gridEast": 27399,
   "gridNorth": 7358,
   "latitude": 54.456402,
   "longitude": -3.121366
 },
 {
   "name": "Pillar",
   "heightMetres": 892,
   "heightFt": "2926.50918635171",
   "gridReference": "NY171121",
   "gridZone": "NY",
   "gridEast": 17125,
   "gridNorth": 12105,
   "latitude": 54.497479,
   "longitude": -3.281134
 },
 {
   "name": "Place Fell",
   "heightMetres": 657,
   "heightFt": "2155.51181102362",
   "gridReference": "NY405169",
   "gridZone": "NY",
   "gridEast": 40533,
   "gridNorth": 16947,
   "latitude": 54.544278,
   "longitude": -2.920741
 },
 {
   "name": "Raise",
   "heightMetres": 883,
   "heightFt": "2896.98162729659",
   "gridReference": "NY342174",
   "gridZone": "NY",
   "gridEast": 34281,
   "gridNorth": 17416,
   "latitude": 54.547718,
   "longitude": -3.017473
 },
 {
   "name": "Rampsgill Head",
   "heightMetres": 792,
   "heightFt": "2598.42519685039",
   "gridReference": "NY443128",
   "gridZone": "NY",
   "gridEast": 44332,
   "gridNorth": 12872,
   "latitude": 54.508092,
   "longitude": -2.861252
 },
 {
   "name": "Rannerdale Knotts",
   "heightMetres": 355,
   "heightFt": "1164.69816272966",
   "gridReference": "NY167182",
   "gridZone": "NY",
   "gridEast": 16726,
   "gridNorth": 18252,
   "latitude": 54.552643,
   "longitude": -3.289032
 },
 {
   "name": "Raven Crag",
   "heightMetres": 461,
   "heightFt": "1512.46719160105",
   "gridReference": "NY303187",
   "gridZone": "NY",
   "gridEast": 30339,
   "gridNorth": 18756,
   "latitude": 54.559231,
   "longitude": -3.07872
 },
 {
   "name": "Red Pike (Buttermere)",
   "heightMetres": 755,
   "heightFt": "2477.03412073491",
   "gridReference": "NY160154",
   "gridZone": "NY",
   "gridEast": 16060,
   "gridNorth": 15459,
   "latitude": 54.527438,
   "longitude": -3.298529
 },
 {
   "name": "Red Pike (Wasdale)",
   "heightMetres": 826,
   "heightFt": "2709.97375328084",
   "gridReference": "NY165106",
   "gridZone": "NY",
   "gridEast": 16531,
   "gridNorth": 10607,
   "latitude": 54.483922,
   "longitude": -3.289879
 },
 {
   "name": "Red Screes",
   "heightMetres": 776,
   "heightFt": "2545.93175853018",
   "gridReference": "NY396087",
   "gridZone": "NY",
   "gridEast": 39660,
   "gridNorth": 8757,
   "latitude": 54.47058,
   "longitude": -2.932556
 },
 {
   "name": "Rest Dodd",
   "heightMetres": 696,
   "heightFt": "2283.46456692913",
   "gridReference": "NY432136",
   "gridZone": "NY",
   "gridEast": 43255,
   "gridNorth": 13648,
   "latitude": 54.514946,
   "longitude": -2.878033
 },
 {
   "name": "Robinson",
   "heightMetres": 737,
   "heightFt": "2417.97900262467",
   "gridReference": "NY201168",
   "gridZone": "NY",
   "gridEast": 20179,
   "gridNorth": 16874,
   "latitude": 54.540818,
   "longitude": -3.235284
 },
 {
   "name": "Rossett Pike",
   "heightMetres": 651,
   "heightFt": "2135.82677165354",
   "gridReference": "NY249075",
   "gridZone": "NY",
   "gridEast": 24910,
   "gridNorth": 7569,
   "latitude": 54.457935,
   "longitude": -3.159804
 },
 {
   "name": "Rosthwaite Fell-Bessyboot",
   "heightMetres": 551,
   "heightFt": "1807.74278215223",
   "gridReference": "NY258124",
   "gridZone": "NY",
   "gridEast": 25830,
   "gridNorth": 12480,
   "latitude": 54.502198,
   "longitude": -3.14685
 },
 {
   "name": "Sail",
   "heightMetres": 773,
   "heightFt": "2536.08923884514",
   "gridReference": "NY198202",
   "gridZone": "NY",
   "gridEast": 19817,
   "gridNorth": 20276,
   "latitude": 54.571328,
   "longitude": -3.241806
 },
 {
   "name": "Sale Fell",
   "heightMetres": 359,
   "heightFt": "1177.82152230971",
   "gridReference": "NY194296",
   "gridZone": "NY",
   "gridEast": 19444,
   "gridNorth": 29665,
   "latitude": 54.655627,
   "longitude": -3.250157
 },
 {
   "name": "Sallows",
   "heightMetres": 516,
   "heightFt": "1692.91338582677",
   "gridReference": "NY436039",
   "gridZone": "NY",
   "gridEast": 43656,
   "gridNorth": 3981,
   "latitude": 54.428122,
   "longitude": -2.869995
 },
 {
   "name": "Scafell",
   "heightMetres": 964,
   "heightFt": "3162.72965879265",
   "gridReference": "NY206064",
   "gridZone": "NY",
   "gridEast": 20681,
   "gridNorth": 6479,
   "latitude": 54.447498,
   "longitude": -3.224731
 },
 {
   "name": "Scafell Pike",
   "heightMetres": 978,
   "heightFt": "3208.66141732283",
   "gridReference": "NY215072",
   "gridZone": "NY",
   "gridEast": 21551,
   "gridNorth": 7212,
   "latitude": 54.454219,
   "longitude": -3.211511
 },
 {
   "name": "Scar Crags",
   "heightMetres": 672,
   "heightFt": "2204.72440944882",
   "gridReference": "NY208206",
   "gridZone": "NY",
   "gridEast": 20848,
   "gridNorth": 20663,
   "latitude": 54.574968,
   "longitude": -3.225966
 },
 {
   "name": "Scoat Fell",
   "heightMetres": 841,
   "heightFt": "2759.18635170604",
   "gridReference": "NY159113",
   "gridZone": "NY",
   "gridEast": 15939,
   "gridNorth": 11395,
   "latitude": 54.490904,
   "longitude": -3.299239
 },
 {
   "name": "Seat Sandal",
   "heightMetres": 736.8,
   "heightFt": "2417.3",
   "gridReference": "NY344115",
   "gridZone": "NY",
   "gridEast": 34419,
   "gridNorth": 11531,
   "latitude": 54.494857,
   "longitude": -3.014027
 },
 {
   "name": "Seatallan",
   "heightMetres": 692,
   "heightFt": "2270.34120734908",
   "gridReference": "NY140084",
   "gridZone": "NY",
   "gridEast": 14001,
   "gridNorth": 8444,
   "latitude": 54.464065,
   "longitude": -3.328274
 },
 {
   "name": "Seathwaite Fell (Wainwright summit)",
   "heightMetres": 601,
   "heightFt": "1971.78477690289",
   "gridReference": "NY229101",
   "gridZone": "NY",
   "gridEast": 22903,
   "gridNorth": 10184,
   "latitude": 54.481131,
   "longitude": -3.191438
 },
 {
   "name": "Selside Pike",
   "heightMetres": 655,
   "heightFt": "2148.9501312336",
   "gridReference": "NY490111",
   "gridZone": "NY",
   "gridEast": 49061,
   "gridNorth": 11146,
   "latitude": 54.49308,
   "longitude": -2.787925
 },
 {
   "name": "Sergeant Man",
   "heightMetres": 736,
   "heightFt": "2414.69816272966",
   "gridReference": "NY286088",
   "gridZone": "NY",
   "gridEast": 28643,
   "gridNorth": 8892,
   "latitude": 54.470362,
   "longitude": -3.102552
 },
 {
   "name": "Sergeant's Crag",
   "heightMetres": 571,
   "heightFt": "1873.35958005249",
   "gridReference": "NY273113",
   "gridZone": "NY",
   "gridEast": 27392,
   "gridNorth": 11379,
   "latitude": 54.492531,
   "longitude": -3.122463
 },
 {
   "name": "Sheffield Pike",
   "heightMetres": 675,
   "heightFt": "2214.56692913386",
   "gridReference": "NY369181",
   "gridZone": "NY",
   "gridEast": 36910,
   "gridNorth": 18182,
   "latitude": 54.554936,
   "longitude": -2.977002
 },
 {
   "name": "Shipman Knotts",
   "heightMetres": 587,
   "heightFt": "1925.8530183727",
   "gridReference": "NY472062",
   "gridZone": "NY",
   "gridEast": 47269,
   "gridNorth": 6214,
   "latitude": 54.448577,
   "longitude": -2.814707
 },
 {
   "name": "Silver How",
   "heightMetres": 395,
   "heightFt": "1295.93175853018",
   "gridReference": "NY324066",
   "gridZone": "NY",
   "gridEast": 32477,
   "gridNorth": 6645,
   "latitude": 54.450696,
   "longitude": -3.04289
 },
 {
   "name": "Skiddaw",
   "heightMetres": 931,
   "heightFt": "3054.46194225722",
   "gridReference": "NY260290",
   "gridZone": "NY",
   "gridEast": 26042,
   "gridNorth": 29082,
   "latitude": 54.6514,
   "longitude": -3.147761
 },
 {
   "name": "Skiddaw Little Man",
   "heightMetres": 865,
   "heightFt": "2837.92650918635",
   "gridReference": "NY266277",
   "gridZone": "NY",
   "gridEast": 26675,
   "gridNorth": 27793,
   "latitude": 54.639911,
   "longitude": -3.137629
 },
 {
   "name": "Slight Side",
   "heightMetres": 762,
   "heightFt": "2500",
   "gridReference": "NY209050",
   "gridZone": "NY",
   "gridEast": 20990,
   "gridNorth": 5015,
   "latitude": 54.434392,
   "longitude": -3.219575
 },
 {
   "name": "Sour Howes",
   "heightMetres": 483,
   "heightFt": "1584.64566929134",
   "gridReference": "NY427032",
   "gridZone": "NY",
   "gridEast": 42765,
   "gridNorth": 3218,
   "latitude": 54.421166,
   "longitude": -2.883579
 },
 {
   "name": "Souther Fell",
   "heightMetres": 522,
   "heightFt": "1712.59842519685",
   "gridReference": "NY354291",
   "gridZone": "NY",
   "gridEast": 35471,
   "gridNorth": 29142,
   "latitude": 54.653236,
   "longitude": -3.001663
 },
 {
   "name": "St Sunday Crag",
   "heightMetres": 841,
   "heightFt": "2759.18635170604",
   "gridReference": "NY369133",
   "gridZone": "NY",
   "gridEast": 36917,
   "gridNorth": 13398,
   "latitude": 54.511949,
   "longitude": -2.975867
 },
 {
   "name": "Starling Dodd",
   "heightMetres": 633,
   "heightFt": "2076.77165354331",
   "gridReference": "NY142157",
   "gridZone": "NY",
   "gridEast": 14208,
   "gridNorth": 15748,
   "latitude": 54.529725,
   "longitude": -3.327207
 },
 {
   "name": "Steel Fell (Dead Pike-Steel Fell)",
   "heightMetres": 553,
   "heightFt": "1814.30446194226",
   "gridReference": "NY319111",
   "gridZone": "NY",
   "gridEast": 31942,
   "gridNorth": 11155,
   "latitude": 54.49115,
   "longitude": -3.052179
 },
 {
   "name": "Steel Knotts (Pikeawassa-Steel Knotts)",
   "heightMetres": 432,
   "heightFt": "1417.32283464567",
   "gridReference": "NY440181",
   "gridZone": "NY",
   "gridEast": 44037,
   "gridNorth": 18123,
   "latitude": 54.555245,
   "longitude": -2.866807
 },
 {
   "name": "Steeple",
   "heightMetres": 819,
   "heightFt": "2687.00787401575",
   "gridReference": "NY157116",
   "gridZone": "NY",
   "gridEast": 15754,
   "gridNorth": 11675,
   "latitude": 54.493389,
   "longitude": -3.302174
 },
 {
   "name": "Stone Arthur",
   "heightMetres": 504,
   "heightFt": "1653.54330708661",
   "gridReference": "NY347092",
   "gridZone": "NY",
   "gridEast": 34753,
   "gridNorth": 9236,
   "latitude": 54.474276,
   "longitude": -3.008366
 },
 {
   "name": "Stony Cove Pike (Caudale Moor)",
   "heightMetres": 763,
   "heightFt": "2503.28083989501",
   "gridReference": "NY417100",
   "gridZone": "NY",
   "gridEast": 41781,
   "gridNorth": 10007,
   "latitude": 54.48206,
   "longitude": -2.90008
 },
 {
   "name": "Stybarrow Dodd",
   "heightMetres": 843,
   "heightFt": "2765.74803149606",
   "gridReference": "NY343189",
   "gridZone": "NY",
   "gridEast": 34308,
   "gridNorth": 18912,
   "latitude": 54.561164,
   "longitude": -3.017391
 },
 {
   "name": "Swirl How",
   "heightMetres": 802,
   "heightFt": "2631.23359580052",
   "gridReference": "NY272005",
   "gridZone": "NY",
   "gridEast": 27280,
   "gridNorth": 552,
   "latitude": 54.39523,
   "longitude": -3.12153
 },
 {
   "name": "Tarn Crag (Easedale)",
   "heightMetres": 549,
   "heightFt": "1801.1811023622",
   "gridReference": "NY303093",
   "gridZone": "NY",
   "gridEast": 30370,
   "gridNorth": 9303,
   "latitude": 54.474295,
   "longitude": -3.076006
 },
 {
   "name": "Tarn Crag (Sleddale)",
   "heightMetres": 664,
   "heightFt": "2178.47769028871",
   "gridReference": "NY488078",
   "gridZone": "NY",
   "gridEast": 48847,
   "gridNorth": 7852,
   "latitude": 54.463458,
   "longitude": -2.790658
 },
 {
   "name": "The Knott (High Street)",
   "heightMetres": 739,
   "heightFt": "2424.5406824147",
   "gridReference": "NY437126",
   "gridZone": "NY",
   "gridEast": 43710,
   "gridNorth": 12682,
   "latitude": 54.506316,
   "longitude": -2.870821
 },
 {
   "name": "The Nab",
   "heightMetres": 576,
   "heightFt": "1889.76377952756",
   "gridReference": "NY434151",
   "gridZone": "NY",
   "gridEast": 43427,
   "gridNorth": 15199,
   "latitude": 54.528902,
   "longitude": -2.875675
 },
 {
   "name": "The Old Man of Coniston (Coniston Old Man)",
   "heightMetres": 803,
   "heightFt": "2634.51443569554",
   "gridReference": "SD272978",
   "gridZone": "SD",
   "gridEast": 27242,
   "gridNorth": 97818,
   "latitude": 54.370658,
   "longitude": -3.121445
 },
 {
   "name": "Thornthwaite Crag",
   "heightMetres": 784,
   "heightFt": "2572.17847769029",
   "gridReference": "NY431100",
   "gridZone": "NY",
   "gridEast": 43149,
   "gridNorth": 10051,
   "latitude": 54.482611,
   "longitude": -2.878976
 },
 {
   "name": "Thunacar Knott",
   "heightMetres": 723,
   "heightFt": "2372.04724409449",
   "gridReference": "NY279079",
   "gridZone": "NY",
   "gridEast": 27974,
   "gridNorth": 7993,
   "latitude": 54.462189,
   "longitude": -3.112653
 },
 {
   "name": "Troutbeck Tongue",
   "heightMetres": 364,
   "heightFt": "1194.22572178478",
   "gridReference": "NY422064",
   "gridZone": "NY",
   "gridEast": 42239,
   "gridNorth": 6429,
   "latitude": 54.449961,
   "longitude": -2.892312
 },
 {
   "name": "Ullock Pike",
   "heightMetres": 690,
   "heightFt": "2263.77952755906",
   "gridReference": "NY244287",
   "gridZone": "NY",
   "gridEast": 24442,
   "gridNorth": 28759,
   "latitude": 54.648261,
   "longitude": -3.17247
 },
 {
   "name": "Ullscarf",
   "heightMetres": 726,
   "heightFt": "2381.88976377953",
   "gridReference": "NY291121",
   "gridZone": "NY",
   "gridEast": 29150,
   "gridNorth": 12174,
   "latitude": 54.499923,
   "longitude": -3.095518
 },
 {
   "name": "Walla Crag",
   "heightMetres": 379,
   "heightFt": "1243.43832020997",
   "gridReference": "NY276212",
   "gridZone": "NY",
   "gridEast": 27685,
   "gridNorth": 21288,
   "latitude": 54.581608,
   "longitude": -3.120377
 },
 {
   "name": "Wandope",
   "heightMetres": 772,
   "heightFt": "2532.80839895013",
   "gridReference": "NY188197",
   "gridZone": "NY",
   "gridEast": 18819,
   "gridNorth": 19738,
   "latitude": 54.566335,
   "longitude": -3.257091
 },
 {
   "name": "Watson's Dodd",
   "heightMetres": 789,
   "heightFt": "2588.58267716535",
   "gridReference": "NY335195",
   "gridZone": "NY",
   "gridEast": 33567,
   "gridNorth": 19563,
   "latitude": 54.566917,
   "longitude": -3.028995
 },
 {
   "name": "Wether Hill",
   "heightMetres": 671,
   "heightFt": "2201.44356955381",
   "gridReference": "NY455167",
   "gridZone": "NY",
   "gridEast": 45595,
   "gridNorth": 16768,
   "latitude": 54.543239,
   "longitude": -2.842469
 },
 {
   "name": "Wetherlam",
   "heightMetres": 763,
   "heightFt": "2503.28083989501",
   "gridReference": "NY288011",
   "gridZone": "NY",
   "gridEast": 28818,
   "gridNorth": 1113,
   "latitude": 54.400488,
   "longitude": -3.097981
 },
 {
   "name": "Whin Rigg (Wasdale)",
   "heightMetres": 537,
   "heightFt": "1761.81102362205",
   "gridReference": "NY151035",
   "gridZone": "NY",
   "gridEast": 15100,
   "gridNorth": 3537,
   "latitude": 54.420162,
   "longitude": -3.309916
 },
 {
   "name": "Whinlatter (Brown How-Whinlatter)",
   "heightMetres": 517,
   "heightFt": "1696.19422572178",
   "gridReference": "NY191251",
   "gridZone": "NY",
   "gridEast": 19113,
   "gridNorth": 25133,
   "latitude": 54.614855,
   "longitude": -3.254033
 },
 {
   "name": "White Side",
   "heightMetres": 863,
   "heightFt": "2831.36482939633",
   "gridReference": "NY337166",
   "gridZone": "NY",
   "gridEast": 33780,
   "gridNorth": 16666,
   "latitude": 54.540913,
   "longitude": -3.025048
 },
 {
   "name": "Whiteless Pike",
   "heightMetres": 660,
   "heightFt": "2165.35433070866",
   "gridReference": "NY180189",
   "gridZone": "NY",
   "gridEast": 18016,
   "gridNorth": 18977,
   "latitude": 54.559368,
   "longitude": -3.269294
 },
 {
   "name": "Whiteside (Whiteside West Top)",
   "heightMetres": 707,
   "heightFt": "2319.55380577428",
   "gridReference": "NY170219",
   "gridZone": "NY",
   "gridEast": 17044,
   "gridNorth": 21949,
   "latitude": 54.585912,
   "longitude": -3.285161
 },
 {
   "name": "Yewbarrow",
   "heightMetres": 627,
   "heightFt": "2057.08661417323",
   "gridReference": "NY173084",
   "gridZone": "NY",
   "gridEast": 17336,
   "gridNorth": 8474,
   "latitude": 54.464889,
   "longitude": -3.27686
 },
 {
   "name": "Yoke",
   "heightMetres": 706,
   "heightFt": "2316.27296587927",
   "gridReference": "NY437067",
   "gridZone": "NY",
   "gridEast": 43773,
   "gridNorth": 6740,
   "latitude": 54.452928,
   "longitude": -2.868716
 }
]