[{"number":2319,"name":"Skiddaw","classification":"Ma,F,Sim,Hew,N,W,B,Sy,Fel","isWainwright":true,"heightMetres":930.4,"heightFeet":3052,"dropMetres":705.7,"colMetres":224.7,"osGridRef":"NY260290","latitude":54.651391,"longitude":-3.147761},{"number":2320,"name":"Blencathra - Hallsfell Top","classification":"Ma,Sim,Hew,N,W,B,Sy,Fel","isWainwright":true,"heightMetres":867.8,"heightFeet":2847,"dropMetres":461.0,"colMetres":407.0,"osGridRef":"NY323277","latitude":54.639949,"longitude":-3.049789},{"number":2321,"name":"Skiddaw Little Man","classification":"Sim,Hew,N,W,B,Sy,Fel","isWainwright":true,"heightMetres":865.0,"heightFeet":2838,"dropMetres":61.0,"colMetres":804.0,"osGridRef":"NY266277","latitude":54.639911,"longitude":-3.137629},{"number":2325,"name":"Carl Side","classification":"N,W,B,Sy,Fel,sSim","isWainwright":true,"heightMetres":746.8,"heightFeet":2450,"dropMetres":28.3,"colMetres":718.6,"osGridRef":"NY254280","latitude":54.642398,"longitude":-3.155984},{"number":2326,"name":"Long Side","classification":"Sim,Hew,N,W,B,Sy,Fel","isWainwright":true,"heightMetres":734.0,"heightFeet":2408,"dropMetres":40.0,"colMetres":694.0,"osGridRef":"NY248284","latitude":54.645505,"longitude":-3.165618},{"number":2327,"name":"Lonscale Fell","classification":"Sim,Hew,N,W,B,Sy,Fel","isWainwright":true,"heightMetres":715.0,"heightFeet":2346,"dropMetres":50.0,"colMetres":665.0,"osGridRef":"NY285271","latitude":54.634357,"longitude":-3.108518},{"number":2328,"name":"Knott","classification":"Ma,Sim,Hew,N,W,B,Sy,Fel","isWainwright":true,"heightMetres":710.0,"heightFeet":2329,"dropMetres":242.0,"colMetres":468.0,"osGridRef":"NY296329","latitude":54.686982,"longitude":-3.093322},{"number":2329,"name":"Bowscale Fell","classification":"Sim,Hew,N,W,B,Sy,Fel","isWainwright":true,"heightMetres":702.0,"heightFeet":2303,"dropMetres":87.0,"colMetres":615.0,"osGridRef":"NY333305","latitude":54.665538,"longitude":-3.035037},{"number":2330,"name":"Ullock Pike","classification":"W,B,Sy,Fel,xN","isWainwright":true,"heightMetres":690.4,"heightFeet":2265,"dropMetres":14.4,"colMetres":676.0,"osGridRef":"NY244287","latitude":54.648261,"longitude":-3.172486},{"number":2331,"name":"Great Calva","classification":"Hu,Sim,Hew,N,sMa,W,B,Sy,Fel","isWainwright":true,"heightMetres":691.0,"heightFeet":2267,"dropMetres":142.0,"colMetres":548.8,"osGridRef":"NY290311","latitude":54.67077,"longitude":-3.101074},{"number":2332,"name":"Bannerdale Crags","classification":"Sim,Hew,N,W,B,Sy,Fel","isWainwright":true,"heightMetres":684.1,"heightFeet":2244,"dropMetres":38.0,"colMetres":646.0,"osGridRef":"NY335290","latitude":54.65195,"longitude":-3.031731},{"number":2333,"name":"Bakestall","classification":"W,B,Sy,Fel","isWainwright":true,"heightMetres":673.0,"heightFeet":2208,"dropMetres":7.0,"colMetres":666.0,"osGridRef":"NY266307","latitude":54.666457,"longitude":-3.138898},{"number":2336,"name":"Carrock Fell","classification":"Sim,Hew,N,W,B,Sy,Fel","isWainwright":true,"heightMetres":662.3,"heightFeet":2173,"dropMetres":89.9,"colMetres":572.4,"osGridRef":"NY341336","latitude":54.693484,"longitude":-3.02287},{"number":2337,"name":"High Pike (Caldbeck)","classification":"Sim,Hew,N,W,B,Sy,Fel","isWainwright":true,"heightMetres":658.0,"heightFeet":2159,"dropMetres":68.0,"colMetres":589.9,"osGridRef":"NY318350","latitude":54.705416,"longitude":-3.058742},{"number":2338,"name":"Great Sca Fell","classification":"W,B,Sy,Fel,xN","isWainwright":true,"heightMetres":651.0,"heightFeet":2136,"dropMetres":13.0,"colMetres":638.0,"osGridRef":"NY291339","latitude":54.695145,"longitude":-3.100989},{"number":2340,"name":"Mungrisdale Common","classification":"W,Sy","isWainwright":true,"heightMetres":631.8,"heightFeet":2073,"dropMetres":2.4,"colMetres":629.3,"osGridRef":"NY311292","latitude":54.653232,"longitude":-3.068359},{"number":2344,"name":"Brae Fell","classification":"W,B,Sy,Fel","isWainwright":true,"heightMetres":586.0,"heightFeet":1923,"dropMetres":14.0,"colMetres":572.0,"osGridRef":"NY288351","latitude":54.70642,"longitude":-3.105361},{"number":2345,"name":"Lord's Seat","classification":"Ma,5,Dew,W,B,Sy,Fel","isWainwright":true,"heightMetres":552.0,"heightFeet":1811,"dropMetres":237.0,"colMetres":315.0,"osGridRef":"NY204265","latitude":54.627823,"longitude":-3.233984},{"number":2346,"name":"Meal Fell","classification":"Dew,W,B,Sy,Fel,s5","isWainwright":true,"heightMetres":549.4,"heightFeet":1802,"dropMetres":29.3,"colMetres":520.1,"osGridRef":"NY283337","latitude":54.693795,"longitude":-3.113923},{"number":2347,"name":"Great Cockup","classification":"5,Dew,sHu,W,B,Sy,Fel","isWainwright":true,"heightMetres":526.0,"heightFeet":1726,"dropMetres":90.0,"colMetres":436.0,"osGridRef":"NY273333","latitude":54.689677,"longitude":-3.128766},{"number":2348,"name":"Souther Fell","classification":"5,Dew,W,B,Sy,Fel","isWainwright":true,"heightMetres":522.0,"heightFeet":1713,"dropMetres":87.0,"colMetres":435.0,"osGridRef":"NY354291","latitude":54.653236,"longitude":-3.001663},{"number":2349,"name":"Dodd (Skiddaw)","classification":"Hu,5,Dew,W,B,Sy,Fel","isWainwright":true,"heightMetres":502.0,"heightFeet":1647,"dropMetres":110.0,"colMetres":392.0,"osGridRef":"NY244273","latitude":54.63561,"longitude":-3.172122},{"number":2350,"name":"Longlands Fell","classification":"4,W,B,Sy,Fel","isWainwright":true,"heightMetres":483.0,"heightFeet":1585,"dropMetres":37.0,"colMetres":446.0,"osGridRef":"NY275354","latitude":54.708411,"longitude":-3.125313},{"number":2351,"name":"Binsey","classification":"Ma,4,W,B,Sy,Fel","isWainwright":true,"heightMetres":447.0,"heightFeet":1467,"dropMetres":242.0,"colMetres":205.0,"osGridRef":"NY225355","latitude":54.708795,"longitude":-3.204188},{"number":2352,"name":"Latrigg","classification":"3,W,B,Sy,Fel","isWainwright":true,"heightMetres":369.0,"heightFeet":1211,"dropMetres":74.0,"colMetres":295.0,"osGridRef":"NY279247","latitude":54.612432,"longitude":-3.117863},{"number":2359,"name":"Scafell Pike","classification":"Ma,F,Sim,Hew,N,W,B,Sy,Fel,CoH,CoU,CoA","isWainwright":true,"heightMetres":978.07,"heightFeet":3209,"dropMetres":912.2,"colMetres":65.9,"osGridRef":"NY215072","latitude":54.454263,"longitude":-3.211682},{"number":2360,"name":"Scafell","classification":"Hu,F,Sim,Hew,N,W,B,Sy,Fel","isWainwright":true,"heightMetres":963.9,"heightFeet":3162,"dropMetres":132.2,"colMetres":831.6,"osGridRef":"NY206064","latitude":54.447498,"longitude":-3.224731},{"number":2364,"name":"Great End","classification":"Sim,Hew,N,W,B,Sy,Fel","isWainwright":true,"heightMetres":909.5,"heightFeet":2984,"dropMetres":56.1,"colMetres":853.4,"osGridRef":"NY226083","latitude":54.46494,"longitude":-3.194548},{"number":2365,"name":"Bowfell","classification":"Hu,Sim,Hew,N,sMa,W,B,Sy,Fel","isWainwright":true,"heightMetres":902.9,"heightFeet":2962,"dropMetres":148.2,"colMetres":754.6,"osGridRef":"NY244064","latitude":54.447816,"longitude":-3.166242},{"number":2367,"name":"Great Gable","classification":"Ma,Sim,Hew,N,W,B,Sy,Fel","isWainwright":true,"heightMetres":899.0,"heightFeet":2949,"dropMetres":425.0,"colMetres":474.0,"osGridRef":"NY211103","latitude":54.482084,"longitude":-3.219296},{"number":2368,"name":"Pillar","classification":"Ma,Sim,Hew,N,W,B,Sy,Fel","isWainwright":true,"heightMetres":892.4,"heightFeet":2928,"dropMetres":348.7,"colMetres":543.7,"osGridRef":"NY171121","latitude":54.497479,"longitude":-3.281134},{"number":2369,"name":"Esk Pike","classification":"Hu,Sim,Hew,N,W,B,Sy,Fel","isWainwright":true,"heightMetres":885.0,"heightFeet":2904,"dropMetres":112.0,"colMetres":773.0,"osGridRef":"NY236075","latitude":54.457172,"longitude":-3.179219},{"number":2371,"name":"Crinkle Crags - Long Top [Second Crinkle]","classification":"Hu,Sim,Hew,N,W,B,Sy,Fel","isWainwright":true,"heightMetres":859.0,"heightFeet":2818,"dropMetres":139.0,"colMetres":720.0,"osGridRef":"NY248048","latitude":54.433704,"longitude":-3.159813},{"number":2372,"name":"Grasmoor","classification":"Ma,Sim,Hew,N,W,B,Sy,Fel","isWainwright":true,"heightMetres":851.6,"heightFeet":2794,"dropMetres":518.2,"colMetres":333.4,"osGridRef":"NY174203","latitude":54.571635,"longitude":-3.277905},{"number":2373,"name":"Scoat Fell","classification":"Sim,Hew,N,W,B,Sy,Fel","isWainwright":true,"heightMetres":841.0,"heightFeet":2759,"dropMetres":86.0,"colMetres":755.0,"osGridRef":"NY159113","latitude":54.490904,"longitude":-3.299224},{"number":2374,"name":"Crag Hill [Eel Crag]","classification":"Hu,Sim,Hew,N,W,B,Sy,Fel","isWainwright":true,"heightMetres":839.2,"heightFeet":2753,"dropMetres":116.7,"colMetres":722.5,"osGridRef":"NY192203","latitude":54.571762,"longitude":-3.250234},{"number":2378,"name":"Red Pike (Wasdale)","classification":"Sim,Hew,N,W,B,Sy,Fel","isWainwright":true,"heightMetres":826.0,"heightFeet":2710,"dropMetres":62.0,"colMetres":764.0,"osGridRef":"NY165106","latitude":54.483922,"longitude":-3.289879},{"number":2379,"name":"Steeple","classification":"N,sSim,W,B,Sy,Fel","isWainwright":true,"heightMetres":819.0,"heightFeet":2687,"dropMetres":24.0,"colMetres":795.0,"osGridRef":"NY157116","latitude":54.493389,"longitude":-3.302174},{"number":2382,"name":"Lingmell","classification":"Sim,Hew,N,W,B,Sy,Fel","isWainwright":true,"heightMetres":807.0,"heightFeet":2648,"dropMetres":72.0,"colMetres":735.0,"osGridRef":"NY209081","latitude":54.462803,"longitude":-3.2213},{"number":2383,"name":"Kirk Fell","classification":"Ma,Sim,Hew,N,W,B,Sy,Fel","isWainwright":true,"heightMetres":802.0,"heightFeet":2631,"dropMetres":181.0,"colMetres":621.0,"osGridRef":"NY194104","latitude":54.483323,"longitude":-3.244123},{"number":2384,"name":"Green Gable","classification":"Sim,Hew,N,W,B,Sy,Fel","isWainwright":true,"heightMetres":801.0,"heightFeet":2628,"dropMetres":50.0,"colMetres":751.0,"osGridRef":"NY214107","latitude":54.485699,"longitude":-3.213769},{"number":2385,"name":"Haycock","classification":"Sim,Hew,N,sHu,W,B,Sy,Fel","isWainwright":true,"heightMetres":797.0,"heightFeet":2615,"dropMetres":94.0,"colMetres":703.0,"osGridRef":"NY144107","latitude":54.484568,"longitude":-3.321576},{"number":2386,"name":"Grisedale Pike","classification":"Ma,Sim,Hew,N,W,B,Sy,Fel","isWainwright":true,"heightMetres":791.0,"heightFeet":2595,"dropMetres":189.0,"colMetres":602.0,"osGridRef":"NY198225","latitude":54.591745,"longitude":-3.242071},{"number":2388,"name":"Allen Crags","classification":"Sim,Hew,N,W,B,Sy,Fel","isWainwright":true,"heightMetres":785.0,"heightFeet":2575,"dropMetres":60.0,"colMetres":725.0,"osGridRef":"NY236085","latitude":54.466367,"longitude":-3.179175},{"number":2389,"name":"Glaramara","classification":"Hu,Sim,Hew,N,W,B,Sy,Fel","isWainwright":true,"heightMetres":783.0,"heightFeet":2569,"dropMetres":121.0,"colMetres":662.0,"osGridRef":"NY245104","latitude":54.483839,"longitude":-3.165338},{"number":2393,"name":"Sail","classification":"Sim,Hew,N,W,B,Sy,Fel","isWainwright":true,"heightMetres":773.0,"heightFeet":2536,"dropMetres":32.0,"colMetres":741.0,"osGridRef":"NY198202","latitude":54.571328,"longitude":-3.241821},{"number":2394,"name":"Wandope","classification":"Sim,Hew,N,W,B,Sy,Fel","isWainwright":true,"heightMetres":773.9,"heightFeet":2539,"dropMetres":30.5,"colMetres":743.4,"osGridRef":"NY188197","latitude":54.566272,"longitude":-3.257089},{"number":2395,"name":"Hopegill Head","classification":"Sim,Hew,N,sHu,W,B,Sy,Fel","isWainwright":true,"heightMetres":769.6,"heightFeet":2525,"dropMetres":97.2,"colMetres":672.4,"osGridRef":"NY185221","latitude":54.588082,"longitude":-3.261675},{"number":2396,"name":"High Raise [High White Stones]","classification":"Ma,Sim,Hew,N,W,B,Sy,Fel","isWainwright":true,"heightMetres":762.0,"heightFeet":2500,"dropMetres":283.0,"colMetres":479.0,"osGridRef":"NY280095","latitude":54.475962,"longitude":-3.111268},{"number":2397,"name":"Slight Side","classification":"W,B,Sy,Fel,xN","isWainwright":true,"heightMetres":762.0,"heightFeet":2500,"dropMetres":14.0,"colMetres":748.0,"osGridRef":"NY209050","latitude":54.434392,"longitude":-3.219575},{"number":2399,"name":"Red Pike (Buttermere)","classification":"Sim,Hew,N,W,B,Sy,Fel","isWainwright":true,"heightMetres":755.3,"heightFeet":2478,"dropMetres":41.3,"colMetres":714.0,"osGridRef":"NY160154","latitude":54.527438,"longitude":-3.298545},{"number":2400,"name":"Dale Head","classification":"Ma,Sim,Hew,N,W,B,Sy,Fel","isWainwright":true,"heightMetres":753.0,"heightFeet":2470,"dropMetres":397.0,"colMetres":356.0,"osGridRef":"NY222153","latitude":54.527238,"longitude":-3.202284},{"number":2401,"name":"High Crag (Buttermere)","classification":"Sim,Hew,N,W,B,Sy,Fel","isWainwright":true,"heightMetres":744.8,"heightFeet":2444,"dropMetres":34.8,"colMetres":710.0,"osGridRef":"NY180139","latitude":54.514628,"longitude":-3.267412},{"number":2405,"name":"Robinson","classification":"Ma,Sim,Hew,N,W,B,Sy,Fel","isWainwright":true,"heightMetres":737.0,"heightFeet":2418,"dropMetres":161.0,"colMetres":576.0,"osGridRef":"NY201168","latitude":54.540803,"longitude":-3.235082},{"number":2406,"name":"Harrison Stickle","classification":"Sim,Hew,N,W,B,Sy,Fel","isWainwright":true,"heightMetres":736.0,"heightFeet":2415,"dropMetres":53.0,"colMetres":683.0,"osGridRef":"NY281074","latitude":54.456898,"longitude":-3.109455},{"number":2407,"name":"Sergeant Man","classification":"W,B,Sy,Fel,xN","isWainwright":true,"heightMetres":736.0,"heightFeet":2415,"dropMetres":12.0,"colMetres":724.0,"osGridRef":"NY286088","latitude":54.470362,"longitude":-3.102552},{"number":2411,"name":"Hindscarth","classification":"Sim,Hew,N,W,B,Sy,Fel","isWainwright":true,"heightMetres":727.0,"heightFeet":2385,"dropMetres":71.0,"colMetres":656.0,"osGridRef":"NY215165","latitude":54.537828,"longitude":-3.213755},{"number":2412,"name":"Ullscarf","classification":"Hu,Sim,Hew,N,W,B,Sy,Fel","isWainwright":true,"heightMetres":723.0,"heightFeet":2372,"dropMetres":114.1,"colMetres":608.9,"osGridRef":"NY291121","latitude":54.499914,"longitude":-3.095534},{"number":2413,"name":"Thunacar Knott","classification":"N,sSim,W,B,Sy,Fel","isWainwright":true,"heightMetres":723.0,"heightFeet":2372,"dropMetres":27.0,"colMetres":696.0,"osGridRef":"NY279079","latitude":54.462189,"longitude":-3.112653},{"number":2416,"name":"Brandreth","classification":"Sim,Hew,N,W,B,Sy,Fel","isWainwright":true,"heightMetres":715.0,"heightFeet":2346,"dropMetres":61.0,"colMetres":654.0,"osGridRef":"NY214119","latitude":54.496479,"longitude":-3.214274},{"number":2417,"name":"Pike of Stickle","classification":"Sim,Hew,N,W,B,Sy,Fel","isWainwright":true,"heightMetres":708.4,"heightFeet":2324,"dropMetres":53.0,"colMetres":655.0,"osGridRef":"NY273073","latitude":54.456393,"longitude":-3.121381},{"number":2418,"name":"Whiteside [Whiteside West Top]","classification":"N,W,B,Sy,Fel","isWainwright":true,"heightMetres":707.0,"heightFeet":2320,"dropMetres":18.0,"colMetres":689.0,"osGridRef":"NY170219","latitude":54.585912,"longitude":-3.285161},{"number":2419,"name":"Pike of Blisco","classification":"Ma,Sim,Hew,N,W,B,Sy,Fel","isWainwright":true,"heightMetres":705.0,"heightFeet":2313,"dropMetres":177.0,"colMetres":528.0,"osGridRef":"NY271042","latitude":54.428111,"longitude":-3.124925},{"number":2422,"name":"Cold Pike","classification":"Sim,Hew,N,W,B,Sy,Fel","isWainwright":true,"heightMetres":700.1,"heightFeet":2297,"dropMetres":46.1,"colMetres":654.0,"osGridRef":"NY262036","latitude":54.4226,"longitude":-3.137582},{"number":2423,"name":"Pavey Ark","classification":"N,W,B,Sy,Fel","isWainwright":true,"heightMetres":700.0,"heightFeet":2297,"dropMetres":15.0,"colMetres":685.0,"osGridRef":"NY284079","latitude":54.461494,"longitude":-3.105214},{"number":2424,"name":"Grey Knotts","classification":"N,W,B,Sy,Fel","isWainwright":true,"heightMetres":697.0,"heightFeet":2287,"dropMetres":16.0,"colMetres":681.0,"osGridRef":"NY217125","latitude":54.502362,"longitude":-3.210186},{"number":2425,"name":"Caw Fell","classification":"N,sSim,W,B,Sy,Fel","isWainwright":true,"heightMetres":697.0,"heightFeet":2287,"dropMetres":22.0,"colMetres":675.0,"osGridRef":"NY132109","latitude":54.486868,"longitude":-3.341256},{"number":2427,"name":"Seatallan","classification":"Ma,Sim,Hew,N,W,B,Sy,Fel","isWainwright":true,"heightMetres":692.0,"heightFeet":2270,"dropMetres":193.0,"colMetres":499.0,"osGridRef":"NY140084","latitude":54.464065,"longitude":-3.328274},{"number":2430,"name":"Loft Crag","classification":"N,sSim,W,B,Sy,Fel","isWainwright":true,"heightMetres":681.7,"heightFeet":2237,"dropMetres":23.6,"colMetres":658.1,"osGridRef":"NY277071","latitude":54.454429,"longitude":-3.115991},{"number":2432,"name":"Scar Crags","classification":"Sim,Hew,N,W,B,Sy,Fel","isWainwright":true,"heightMetres":672.0,"heightFeet":2205,"dropMetres":55.0,"colMetres":617.0,"osGridRef":"NY208206","latitude":54.574968,"longitude":-3.225951},{"number":2434,"name":"Whiteless Pike","classification":"Sim,Hew,N,W,B,Sy,Fel","isWainwright":true,"heightMetres":660.0,"heightFeet":2165,"dropMetres":36.2,"colMetres":623.8,"osGridRef":"NY180189","latitude":54.559367,"longitude":-3.26931},{"number":2436,"name":"High Spy","classification":"Hu,Sim,Hew,N,sMa,W,B,Sy,Fel","isWainwright":true,"heightMetres":653.1,"heightFeet":2143,"dropMetres":147.8,"colMetres":505.3,"osGridRef":"NY234162","latitude":54.535568,"longitude":-3.185141},{"number":2437,"name":"Rossett Pike","classification":"Sim,Hew,N,W,B,Sy,Fel","isWainwright":true,"heightMetres":651.0,"heightFeet":2136,"dropMetres":40.0,"colMetres":611.0,"osGridRef":"NY249075","latitude":54.457935,"longitude":-3.159804},{"number":2438,"name":"Fleetwith Pike","classification":"Hu,Sim,Hew,N,W,B,Sy,Fel","isWainwright":true,"heightMetres":648.9,"heightFeet":2129,"dropMetres":118.4,"colMetres":530.5,"osGridRef":"NY205141","latitude":54.516562,"longitude":-3.22818},{"number":2439,"name":"Base Brown","classification":"Sim,Hew,N,W,B,Sy,Fel","isWainwright":true,"heightMetres":646.0,"heightFeet":2119,"dropMetres":38.0,"colMetres":608.0,"osGridRef":"NY225114","latitude":54.492581,"longitude":-3.197762},{"number":2442,"name":"Causey Pike","classification":"Sim,Hew,N,W,B,Sy,Fel","isWainwright":true,"heightMetres":637.0,"heightFeet":2090,"dropMetres":40.0,"colMetres":597.0,"osGridRef":"NY218208","latitude":54.576817,"longitude":-3.210133},{"number":2445,"name":"Starling Dodd","classification":"Sim,Hew,N,W,B,Sy,Fel","isWainwright":true,"heightMetres":633.0,"heightFeet":2077,"dropMetres":73.0,"colMetres":560.0,"osGridRef":"NY142157","latitude":54.529725,"longitude":-3.327207},{"number":2450,"name":"Yewbarrow","classification":"Hu,Sim,Hew,N,sMa,W,B,Sy,Fel","isWainwright":true,"heightMetres":628.7,"heightFeet":2063,"dropMetres":143.9,"colMetres":484.8,"osGridRef":"NY173084","latitude":54.464889,"longitude":-3.27686},{"number":2451,"name":"Great Borne","classification":"Hu,Sim,Hew,N,W,B,Sy,Fel","isWainwright":true,"heightMetres":616.0,"heightFeet":2021,"dropMetres":113.0,"colMetres":503.0,"osGridRef":"NY123163","latitude":54.534903,"longitude":-3.355427},{"number":2454,"name":"Illgill Head","classification":"Ma,Sim,Dew,W,B,Sy,Fel","isWainwright":true,"heightMetres":608.8,"heightFeet":1997,"dropMetres":312.2,"colMetres":296.6,"osGridRef":"NY168049","latitude":54.43293,"longitude":-3.282634},{"number":2455,"name":"High Seat","classification":"Hu,Sim,Dew,W,B,Sy,Fel","isWainwright":true,"heightMetres":609.0,"heightFeet":1998,"dropMetres":139.2,"colMetres":469.8,"osGridRef":"NY287180","latitude":54.552623,"longitude":-3.103764},{"number":2456,"name":"Seathwaite Fell (Wainwright summit)","classification":"W,B,Sy,Fel","isWainwright":true,"heightMetres":601.1,"heightFeet":1972,"dropMetres":14.0,"colMetres":587.1,"osGridRef":"NY229101","latitude":54.480998,"longitude":-3.191249},{"number":2457,"name":"Haystacks (Buttermere)","classification":"5,Dew,W,B,Sy,Fel","isWainwright":true,"heightMetres":597.0,"heightFeet":1959,"dropMetres":78.0,"colMetres":519.0,"osGridRef":"NY193131","latitude":54.507243,"longitude":-3.247321},{"number":2458,"name":"Bleaberry Fell","classification":"5,Dew,W,B,Sy,Fel","isWainwright":true,"heightMetres":590.0,"heightFeet":1936,"dropMetres":42.0,"colMetres":548.0,"osGridRef":"NY285195","latitude":54.56637,"longitude":-3.106177},{"number":2459,"name":"Middle Fell","classification":"Hu,5,Dew,W,B,Sy,Fel","isWainwright":true,"heightMetres":582.0,"heightFeet":1909,"dropMetres":117.0,"colMetres":465.0,"osGridRef":"NY150072","latitude":54.453249,"longitude":-3.311327},{"number":2460,"name":"Ard Crags","classification":"Hu,5,Dew,W,B,Sy,Fel","isWainwright":true,"heightMetres":581.0,"heightFeet":1906,"dropMetres":116.0,"colMetres":465.0,"osGridRef":"NY206197","latitude":54.566938,"longitude":-3.228123},{"number":2461,"name":"Maiden Moor","classification":"W,B,Sy,Fel","isWainwright":true,"heightMetres":575.0,"heightFeet":1886,"dropMetres":10.0,"colMetres":565.0,"osGridRef":"NY236181","latitude":54.553174,"longitude":-3.181585},{"number":2462,"name":"Blake Fell","classification":"Ma,5,Dew,W,B,Sy,Fel","isWainwright":true,"heightMetres":573.0,"heightFeet":1880,"dropMetres":164.0,"colMetres":409.0,"osGridRef":"NY110196","latitude":54.564569,"longitude":-3.377198},{"number":2463,"name":"Sergeant's Crag","classification":"5,Dew,W,B,Sy,Fel","isWainwright":true,"heightMetres":571.0,"heightFeet":1873,"dropMetres":45.0,"colMetres":526.0,"osGridRef":"NY273113","latitude":54.492531,"longitude":-3.122463},{"number":2464,"name":"Outerside","classification":"5,Dew,W,B,Sy,Fel","isWainwright":true,"heightMetres":568.0,"heightFeet":1864,"dropMetres":74.0,"colMetres":494.0,"osGridRef":"NY211214","latitude":54.582169,"longitude":-3.222159},{"number":2465,"name":"Knott Rigg","classification":"5,Dew,W,B,Sy,Fel","isWainwright":true,"heightMetres":556.0,"heightFeet":1824,"dropMetres":53.0,"colMetres":503.0,"osGridRef":"NY197188","latitude":54.558701,"longitude":-3.242613},{"number":2466,"name":"Steel Fell [Dead Pike - Steel Fell]","classification":"5,Dew,W,B,Sy,Fel","isWainwright":true,"heightMetres":553.0,"heightFeet":1814,"dropMetres":83.0,"colMetres":470.0,"osGridRef":"NY319111","latitude":54.49115,"longitude":-3.052179},{"number":2467,"name":"Rosthwaite Fell - Bessyboot","classification":"5,Dew,W,B,Sy,Fel","isWainwright":true,"heightMetres":551.0,"heightFeet":1808,"dropMetres":45.0,"colMetres":506.0,"osGridRef":"NY258124","latitude":54.502198,"longitude":-3.14685},{"number":2468,"name":"Tarn Crag (Easedale)","classification":"W,B,Sy,Fel","isWainwright":true,"heightMetres":549.0,"heightFeet":1801,"dropMetres":4.0,"colMetres":545.0,"osGridRef":"NY303093","latitude":54.474295,"longitude":-3.076006},{"number":2469,"name":"Hard Knott","classification":"Ma,5,Dew,W,B,Sy,Fel","isWainwright":true,"heightMetres":549.0,"heightFeet":1801,"dropMetres":154.0,"colMetres":395.0,"osGridRef":"NY231023","latitude":54.411026,"longitude":-3.185029},{"number":2470,"name":"Blea Rigg","classification":"W,B,Sy,Fel","isWainwright":true,"heightMetres":541.0,"heightFeet":1775,"dropMetres":11.0,"colMetres":530.0,"osGridRef":"NY301078","latitude":54.461076,"longitude":-3.078806},{"number":2471,"name":"Lank Rigg","classification":"Hu,5,Dew,W,B,Sy,Fel","isWainwright":true,"heightMetres":541.0,"heightFeet":1775,"dropMetres":111.0,"colMetres":430.0,"osGridRef":"NY091119","latitude":54.494811,"longitude":-3.403973},{"number":2472,"name":"Calf Crag","classification":"5,Dew,W,B,Sy,Fel","isWainwright":true,"heightMetres":537.0,"heightFeet":1762,"dropMetres":50.0,"colMetres":487.0,"osGridRef":"NY301104","latitude":54.484231,"longitude":-3.079493},{"number":2473,"name":"Whin Rigg (Wasdale)","classification":"5,Dew,W,B,Sy,Fel","isWainwright":true,"heightMetres":537.0,"heightFeet":1762,"dropMetres":61.0,"colMetres":476.0,"osGridRef":"NY151035","latitude":54.420162,"longitude":-3.309916},{"number":2474,"name":"Gavel Fell","classification":"5,Dew,W,B,Sy,Fel","isWainwright":true,"heightMetres":524.3,"heightFeet":1720,"dropMetres":73.7,"colMetres":450.7,"osGridRef":"NY116185","latitude":54.554011,"longitude":-3.367472},{"number":2475,"name":"Eagle Crag","classification":"s5,W,B,Sy,Fel","isWainwright":true,"heightMetres":525.0,"heightFeet":1722,"dropMetres":27.0,"colMetres":498.0,"osGridRef":"NY275121","latitude":54.499056,"longitude":-3.12048},{"number":2476,"name":"Crag Fell","classification":"Hu,5,Dew,W,B,Sy,Fel","isWainwright":true,"heightMetres":523.0,"heightFeet":1716,"dropMetres":114.0,"colMetres":409.0,"osGridRef":"NY097143","latitude":54.516717,"longitude":-3.396073},{"number":2477,"name":"Whinlatter [Brown How - Whinlatter]","classification":"W,B,Sy,Fel","isWainwright":true,"heightMetres":517.0,"heightFeet":1696,"dropMetres":16.0,"colMetres":501.0,"osGridRef":"NY191251","latitude":54.614855,"longitude":-3.254033},{"number":2478,"name":"High Tove","classification":"W,B,Sy,Fel","isWainwright":true,"heightMetres":515.0,"heightFeet":1690,"dropMetres":16.0,"colMetres":499.0,"osGridRef":"NY289165","latitude":54.53886,"longitude":-3.100209},{"number":2479,"name":"Mellbreak [Mellbreak South Top]","classification":"Ma,5,Dew,W,B,Sy,Fel","isWainwright":true,"heightMetres":512.0,"heightFeet":1680,"dropMetres":260.0,"colMetres":252.0,"osGridRef":"NY148186","latitude":54.555581,"longitude":-3.318258},{"number":2480,"name":"Broom Fell","classification":"s5,W,B,Sy,Fel","isWainwright":true,"heightMetres":510.2,"heightFeet":1674,"dropMetres":28.9,"colMetres":481.4,"osGridRef":"NY195270","latitude":54.632165,"longitude":-3.247904},{"number":2481,"name":"Hen Comb","classification":"Hu,5,Dew,W,B,Sy,Fel","isWainwright":true,"heightMetres":506.2,"heightFeet":1661,"dropMetres":138.8,"colMetres":367.4,"osGridRef":"NY132181","latitude":54.550848,"longitude":-3.343261},{"number":2482,"name":"Grike","classification":"4,W,B,Sy,Fel","isWainwright":true,"heightMetres":488.0,"heightFeet":1601,"dropMetres":37.0,"colMetres":451.0,"osGridRef":"NY084140","latitude":54.513766,"longitude":-3.41488},{"number":2483,"name":"Armboth Fell","classification":"W","isWainwright":true,"heightMetres":475.0,"heightFeet":1558,"dropMetres":7.7,"colMetres":467.3,"osGridRef":"NY295157","latitude":54.532026,"longitude":-3.089702},{"number":2484,"name":"Burnbank Fell","classification":"W,B,Sy","isWainwright":true,"heightMetres":475.0,"heightFeet":1558,"dropMetres":22.0,"colMetres":453.0,"osGridRef":"NY110209","latitude":54.575943,"longitude":-3.37834},{"number":2485,"name":"Lingmoor Fell [Lingmoor Fell - Brown How]","classification":"Ma,4,W,B,Sy,Fel","isWainwright":true,"heightMetres":470.0,"heightFeet":1542,"dropMetres":248.0,"colMetres":222.0,"osGridRef":"NY302046","latitude":54.432067,"longitude":-3.07641},{"number":2486,"name":"Barf","classification":"4,W,B,Sy,Fel","isWainwright":true,"heightMetres":469.0,"heightFeet":1539,"dropMetres":38.0,"colMetres":431.0,"osGridRef":"NY214267","latitude":54.629665,"longitude":-3.218084},{"number":2487,"name":"Raven Crag","classification":"4,W,B,Sy,Fel","isWainwright":true,"heightMetres":461.0,"heightFeet":1512,"dropMetres":44.0,"colMetres":417.0,"osGridRef":"NY303187","latitude":54.559231,"longitude":-3.07872},{"number":2488,"name":"Barrow","classification":"4,W,B,Sy,Fel","isWainwright":true,"heightMetres":455.0,"heightFeet":1493,"dropMetres":71.0,"colMetres":384.0,"osGridRef":"NY227218","latitude":54.58566,"longitude":-3.19752},{"number":2489,"name":"Graystones","classification":"W","isWainwright":true,"heightMetres":450.4,"heightFeet":1478,"dropMetres":9.4,"colMetres":441.0,"osGridRef":"NY176266","latitude":54.627991,"longitude":-3.277642},{"number":2490,"name":"Cat Bells [Catbells]","classification":"4,W,B,Sy,Fel","isWainwright":true,"heightMetres":451.0,"heightFeet":1480,"dropMetres":87.0,"colMetres":364.0,"osGridRef":"NY244198","latitude":54.568316,"longitude":-3.1707},{"number":2491,"name":"Great Crag (Stonethwaite)","classification":"4,W,B,Sy,Fel","isWainwright":true,"heightMetres":449.0,"heightFeet":1473,"dropMetres":32.0,"colMetres":417.0,"osGridRef":"NY270146","latitude":54.522189,"longitude":-3.129333},{"number":2493,"name":"Low Fell","classification":"Ma,4,W,B,Sy,Fel","isWainwright":true,"heightMetres":423.0,"heightFeet":1388,"dropMetres":266.0,"colMetres":157.0,"osGridRef":"NY137226","latitude":54.591358,"longitude":-3.336608},{"number":2494,"name":"Gibson Knott","classification":"W,B,Sy,Fel","isWainwright":true,"heightMetres":420.1,"heightFeet":1378,"dropMetres":8.8,"colMetres":411.3,"osGridRef":"NY316100","latitude":54.48107,"longitude":-3.055825},{"number":2495,"name":"Fellbarrow - Mosser Fell","classification":"4,W,B,Sy,Fel","isWainwright":true,"heightMetres":416.0,"heightFeet":1365,"dropMetres":51.6,"colMetres":364.4,"osGridRef":"NY132242","latitude":54.60582,"longitude":-3.344699},{"number":2496,"name":"Grange Fell [Brund Fell]","classification":"4,W,B,Sy,Fel","isWainwright":true,"heightMetres":417.2,"heightFeet":1369,"dropMetres":42.2,"colMetres":375.0,"osGridRef":"NY264162","latitude":54.536408,"longitude":-3.137963},{"number":2497,"name":"Buckbarrow","classification":"W,B,Sy,Fel","isWainwright":true,"heightMetres":423.0,"heightFeet":1388,"dropMetres":4.0,"colMetres":419.0,"osGridRef":"NY135061","latitude":54.443165,"longitude":-3.334275},{"number":2498,"name":"Helm Crag","classification":"4,W,B,Sy,Fel","isWainwright":true,"heightMetres":405.0,"heightFeet":1329,"dropMetres":70.0,"colMetres":335.0,"osGridRef":"NY326093","latitude":54.475026,"longitude":-3.040823},{"number":2499,"name":"Silver How","classification":"W,B,Sy,Fel","isWainwright":true,"heightMetres":393.8,"heightFeet":1292,"dropMetres":29.7,"colMetres":364.1,"osGridRef":"NY324066","latitude":54.450687,"longitude":-3.04289},{"number":2500,"name":"Walla Crag","classification":"W,B,Sy,Fel","isWainwright":true,"heightMetres":379.0,"heightFeet":1243,"dropMetres":24.0,"colMetres":355.0,"osGridRef":"NY276212","latitude":54.581608,"longitude":-3.120377},{"number":2501,"name":"Ling Fell","classification":"3,sHu,W,B,Sy,Fel","isWainwright":true,"heightMetres":374.0,"heightFeet":1227,"dropMetres":98.0,"colMetres":276.0,"osGridRef":"NY179285","latitude":54.645249,"longitude":-3.272325},{"number":2502,"name":"Rannerdale Knotts","classification":"3,W,B,Sy,Fel","isWainwright":true,"heightMetres":355.0,"heightFeet":1165,"dropMetres":66.0,"colMetres":289.0,"osGridRef":"NY167182","latitude":54.552643,"longitude":-3.289032},{"number":2503,"name":"Sale Fell","classification":"Hu,3,W,B,Sy,Fel","isWainwright":true,"heightMetres":359.0,"heightFeet":1178,"dropMetres":137.0,"colMetres":222.0,"osGridRef":"NY194296","latitude":54.655627,"longitude":-3.250157},{"number":2507,"name":"Loughrigg Fell","classification":"Ma,3,W,B,Sy,Fel","isWainwright":true,"heightMetres":335.0,"heightFeet":1099,"dropMetres":172.0,"colMetres":163.0,"osGridRef":"NY346051","latitude":54.437454,"longitude":-3.008355},{"number":2508,"name":"Black Fell","classification":"Hu,3,W,B,Sy,Fel","isWainwright":true,"heightMetres":323.0,"heightFeet":1060,"dropMetres":126.0,"colMetres":197.0,"osGridRef":"NY340015","latitude":54.405503,"longitude":-3.017955},{"number":2510,"name":"Castle Crag","classification":"2,W,Sy,Fel","isWainwright":true,"heightMetres":290.0,"heightFeet":951,"dropMetres":75.0,"colMetres":215.0,"osGridRef":"NY249159","latitude":54.533181,"longitude":-3.161612},{"number":2515,"name":"Helvellyn","classification":"Ma,F,Sim,Hew,N,W,B,Sy,Fel,CoH","isWainwright":true,"heightMetres":949.8,"heightFeet":3116,"dropMetres":713.4,"colMetres":236.4,"osGridRef":"NY342151","latitude":54.527001,"longitude":-3.017514},{"number":2517,"name":"Nethermost Pike","classification":"N,sSim,W,B,Sy,Fel","isWainwright":true,"heightMetres":891.3,"heightFeet":2924,"dropMetres":29.1,"colMetres":862.2,"osGridRef":"NY343142","latitude":54.518993,"longitude":-3.015446},{"number":2518,"name":"Catstye Cam","classification":"Sim,Hew,N,W,B,Sy,Fel","isWainwright":true,"heightMetres":889.6,"heightFeet":2919,"dropMetres":62.4,"colMetres":827.2,"osGridRef":"NY348158","latitude":54.533472,"longitude":-3.008944},{"number":2520,"name":"Raise","classification":"Sim,Hew,N,sHu,W,B,Sy,Fel","isWainwright":true,"heightMetres":882.7,"heightFeet":2896,"dropMetres":91.6,"colMetres":791.1,"osGridRef":"NY342174","latitude":54.547718,"longitude":-3.017473},{"number":2521,"name":"Fairfield","classification":"Ma,Sim,Hew,N,W,B,Sy,Fel","isWainwright":true,"heightMetres":873.3,"heightFeet":2865,"dropMetres":300.3,"colMetres":573.0,"osGridRef":"NY358117","latitude":54.497054,"longitude":-2.991648},{"number":2523,"name":"White Side","classification":"Sim,Hew,N,W,B,Sy,Fel","isWainwright":true,"heightMetres":863.2,"heightFeet":2832,"dropMetres":43.1,"colMetres":820.1,"osGridRef":"NY337166","latitude":54.540904,"longitude":-3.025063},{"number":2524,"name":"Dollywaggon Pike","classification":"Sim,Hew,N,W,B,Sy,Fel","isWainwright":true,"heightMetres":858.5,"heightFeet":2817,"dropMetres":50.3,"colMetres":808.2,"osGridRef":"NY346130","latitude":54.508693,"longitude":-3.011175},{"number":2525,"name":"Great Dodd","classification":"Hu,Sim,Hew,N,W,B,Sy,Fel","isWainwright":true,"heightMetres":857.0,"heightFeet":2812,"dropMetres":109.0,"colMetres":748.0,"osGridRef":"NY342205","latitude":54.575689,"longitude":-3.019377},{"number":2526,"name":"Stybarrow Dodd","classification":"Sim,Hew,N,W,B,Sy,Fel","isWainwright":true,"heightMetres":843.7,"heightFeet":2768,"dropMetres":68.9,"colMetres":774.8,"osGridRef":"NY343189","latitude":54.561128,"longitude":-3.017405},{"number":2527,"name":"St Sunday Crag","classification":"Ma,Sim,Hew,N,W,B,Sy,Fel","isWainwright":true,"heightMetres":841.2,"heightFeet":2760,"dropMetres":160.5,"colMetres":680.7,"osGridRef":"NY369133","latitude":54.51194,"longitude":-2.975836},{"number":2528,"name":"High Street","classification":"Ma,Sim,Hew,N,W,B,Sy,Fel","isWainwright":true,"heightMetres":828.0,"heightFeet":2717,"dropMetres":373.0,"colMetres":455.0,"osGridRef":"NY440110","latitude":54.491691,"longitude":-2.86486},{"number":2529,"name":"Hart Crag","classification":"Sim,Hew,N,W,B,Sy,Fel","isWainwright":true,"heightMetres":823.1,"heightFeet":2700,"dropMetres":51.2,"colMetres":771.9,"osGridRef":"NY368112","latitude":54.492752,"longitude":-2.976954},{"number":2530,"name":"High Raise (High Street)","classification":"Sim,Hew,N,W,B,Sy,Fel","isWainwright":true,"heightMetres":803.6,"heightFeet":2636,"dropMetres":89.9,"colMetres":713.7,"osGridRef":"NY448134","latitude":54.513367,"longitude":-2.853779},{"number":2532,"name":"Rampsgill Head","classification":"Sim,Hew,N,W,B,Sy,Fel","isWainwright":true,"heightMetres":792.4,"heightFeet":2600,"dropMetres":41.1,"colMetres":751.3,"osGridRef":"NY443128","latitude":54.508092,"longitude":-2.861252},{"number":2533,"name":"Dove Crag","classification":"Sim,Hew,N,W,B,Sy,Fel","isWainwright":true,"heightMetres":792.0,"heightFeet":2598,"dropMetres":50.0,"colMetres":742.0,"osGridRef":"NY374104","latitude":54.4854,"longitude":-2.96693},{"number":2534,"name":"Watson's Dodd","classification":"W,B,Sy,Fel","isWainwright":true,"heightMetres":789.0,"heightFeet":2589,"dropMetres":11.0,"colMetres":778.0,"osGridRef":"NY335195","latitude":54.566917,"longitude":-3.028995},{"number":2535,"name":"Thornthwaite Crag","classification":"Sim,Hew,N,W,B,Sy,Fel","isWainwright":true,"heightMetres":784.0,"heightFeet":2572,"dropMetres":30.6,"colMetres":753.4,"osGridRef":"NY431100","latitude":54.482611,"longitude":-2.878976},{"number":2536,"name":"Kidsty Pike","classification":"N,W,B,Sy,Fel","isWainwright":true,"heightMetres":781.0,"heightFeet":2562,"dropMetres":15.0,"colMetres":766.0,"osGridRef":"NY447125","latitude":54.505513,"longitude":-2.854959},{"number":2537,"name":"Harter Fell (Mardale)","classification":"Hu,Sim,Hew,N,sMa,W,B,Sy,Fel","isWainwright":true,"heightMetres":779.0,"heightFeet":2556,"dropMetres":149.2,"colMetres":629.8,"osGridRef":"NY459093","latitude":54.476414,"longitude":-2.835323},{"number":2538,"name":"Red Screes","classification":"Ma,Sim,Hew,N,W,B,Sy,Fel","isWainwright":true,"heightMetres":776.0,"heightFeet":2546,"dropMetres":260.0,"colMetres":516.0,"osGridRef":"NY396087","latitude":54.470589,"longitude":-2.932572},{"number":2539,"name":"Great Rigg","classification":"Sim,Hew,N,W,B,Sy,Fel","isWainwright":true,"heightMetres":766.4,"heightFeet":2514,"dropMetres":31.0,"colMetres":735.0,"osGridRef":"NY355104","latitude":54.484906,"longitude":-2.995692},{"number":2540,"name":"Stony Cove Pike [Caudale Moor]","classification":"Ma,Sim,Hew,N,W,B,Sy,Fel","isWainwright":true,"heightMetres":763.7,"heightFeet":2506,"dropMetres":172.0,"colMetres":592.0,"osGridRef":"NY417100","latitude":54.48206,"longitude":-2.90008},{"number":2541,"name":"Mardale Ill Bell","classification":"W,B,Sy,Fel,xN","isWainwright":true,"heightMetres":760.0,"heightFeet":2493,"dropMetres":10.0,"colMetres":750.0,"osGridRef":"NY447101","latitude":54.483418,"longitude":-2.854112},{"number":2542,"name":"Ill Bell","classification":"Hu,Sim,Hew,N,W,B,Sy,Fel","isWainwright":true,"heightMetres":757.0,"heightFeet":2484,"dropMetres":124.0,"colMetres":633.0,"osGridRef":"NY436077","latitude":54.462017,"longitude":-2.870837},{"number":2543,"name":"Hart Side","classification":"N,sSim,W,B,Sy,Fel","isWainwright":true,"heightMetres":756.0,"heightFeet":2480,"dropMetres":23.0,"colMetres":733.0,"osGridRef":"NY359197","latitude":54.568719,"longitude":-2.992938},{"number":2544,"name":"The Knott (High Street)","classification":"W,B,Sy,xN","isWainwright":true,"heightMetres":739.0,"heightFeet":2425,"dropMetres":13.0,"colMetres":726.0,"osGridRef":"NY437126","latitude":54.506316,"longitude":-2.870821},{"number":2545,"name":"Seat Sandal","classification":"Ma,Sim,Hew,N,W,B,Sy,Fel","isWainwright":true,"heightMetres":736.8,"heightFeet":2417,"dropMetres":151.9,"colMetres":584.9,"osGridRef":"NY344115","latitude":54.494857,"longitude":-3.014027},{"number":2546,"name":"Kentmere Pike","classification":"Sim,Hew,N,W,B,Sy,Fel","isWainwright":true,"heightMetres":730.5,"heightFeet":2397,"dropMetres":39.7,"colMetres":690.8,"osGridRef":"NY465077","latitude":54.462682,"longitude":-2.826034},{"number":2547,"name":"Clough Head","classification":"Hu,Sim,Hew,N,W,B,Sy,Fel","isWainwright":true,"heightMetres":726.0,"heightFeet":2382,"dropMetres":108.0,"colMetres":618.0,"osGridRef":"NY333225","latitude":54.593661,"longitude":-3.032362},{"number":2548,"name":"Froswick","classification":"Sim,Hew,N,W,B,Sy,Fel","isWainwright":true,"heightMetres":720.0,"heightFeet":2362,"dropMetres":75.0,"colMetres":645.0,"osGridRef":"NY435085","latitude":54.468949,"longitude":-2.872974},{"number":2549,"name":"Birkhouse Moor","classification":"N,sSim,W,B,Sy,Fel","isWainwright":true,"heightMetres":717.6,"heightFeet":2354,"dropMetres":22.3,"colMetres":695.3,"osGridRef":"NY363159","latitude":54.535033,"longitude":-2.98532},{"number":2550,"name":"Branstree","classification":"Hu,Sim,Hew,N,W,B,Sy,Fel","isWainwright":true,"heightMetres":711.5,"heightFeet":2334,"dropMetres":137.0,"colMetres":574.5,"osGridRef":"NY477100","latitude":54.482669,"longitude":-2.807575},{"number":2551,"name":"Yoke","classification":"Sim,Hew,N,W,B,Sy,Fel","isWainwright":true,"heightMetres":707.0,"heightFeet":2320,"dropMetres":38.8,"colMetres":668.2,"osGridRef":"NY437067","latitude":54.452928,"longitude":-2.868731},{"number":2552,"name":"Gray Crag","classification":"W,B,Sy,Fel,xN","isWainwright":true,"heightMetres":698.1,"heightFeet":2290,"dropMetres":13.7,"colMetres":684.4,"osGridRef":"NY427117","latitude":54.497466,"longitude":-2.885363},{"number":2553,"name":"Rest Dodd","classification":"Hu,Sim,Hew,N,W,B,Sy,Fel","isWainwright":true,"heightMetres":696.0,"heightFeet":2283,"dropMetres":111.0,"colMetres":585.0,"osGridRef":"NY432136","latitude":54.514937,"longitude":-2.878033},{"number":2554,"name":"Sheffield Pike","classification":"Sim,Hew,N,sHu,W,B,Sy,Fel","isWainwright":true,"heightMetres":676.1,"heightFeet":2218,"dropMetres":93.0,"colMetres":583.1,"osGridRef":"NY369181","latitude":54.554936,"longitude":-2.977002},{"number":2556,"name":"Loadpot Hill","classification":"Sim,Hew,N,W,B,Sy,Fel","isWainwright":true,"heightMetres":672.0,"heightFeet":2205,"dropMetres":49.0,"colMetres":623.0,"osGridRef":"NY456180","latitude":54.554737,"longitude":-2.842087},{"number":2557,"name":"Wether Hill","classification":"W,B,Sy,Fel,xN","isWainwright":true,"heightMetres":671.0,"heightFeet":2201,"dropMetres":5.0,"colMetres":666.0,"osGridRef":"NY455167","latitude":54.543239,"longitude":-2.842453},{"number":2559,"name":"Tarn Crag (Sleddale)","classification":"Ma,Sim,Hew,N,W,B,Sy,Fel","isWainwright":true,"heightMetres":664.0,"heightFeet":2178,"dropMetres":160.0,"colMetres":504.0,"osGridRef":"NY488078","latitude":54.463458,"longitude":-2.790658},{"number":2561,"name":"Place Fell","classification":"Ma,Sim,Hew,N,W,B,Sy,Fel","isWainwright":true,"heightMetres":657.0,"heightFeet":2156,"dropMetres":262.0,"colMetres":395.0,"osGridRef":"NY405169","latitude":54.544269,"longitude":-2.920725},{"number":2562,"name":"High Pike (Scandale)","classification":"W,B,Sy,Fel","isWainwright":true,"heightMetres":656.0,"heightFeet":2152,"dropMetres":6.0,"colMetres":650.0,"osGridRef":"NY374088","latitude":54.470976,"longitude":-2.966791},{"number":2563,"name":"Selside Pike","classification":"Sim,Hew,N,W,B,Sy,Fel","isWainwright":true,"heightMetres":655.0,"heightFeet":2149,"dropMetres":36.0,"colMetres":619.0,"osGridRef":"NY490111","latitude":54.49308,"longitude":-2.787925},{"number":2564,"name":"Middle Dodd","classification":"W,B,Sy,Fel","isWainwright":true,"heightMetres":654.0,"heightFeet":2146,"dropMetres":14.0,"colMetres":640.0,"osGridRef":"NY397095","latitude":54.477939,"longitude":-2.931566},{"number":2565,"name":"Grey Crag [Sleddale Fell]","classification":"Sim,Hew,N,W,B,Sy,Fel","isWainwright":true,"heightMetres":638.0,"heightFeet":2093,"dropMetres":41.0,"colMetres":597.0,"osGridRef":"NY497072","latitude":54.457874,"longitude":-2.777191},{"number":2566,"name":"Little Hart Crag [Little Hart Crag - West Top]","classification":"Sim,Hew,N,W,B,Sy,Fel","isWainwright":true,"heightMetres":637.0,"heightFeet":2090,"dropMetres":34.0,"colMetres":603.0,"osGridRef":"NY387100","latitude":54.481916,"longitude":-2.947169},{"number":2570,"name":"Birks","classification":"N,sSim,W,B,Sy,Fel","isWainwright":true,"heightMetres":624.0,"heightFeet":2047,"dropMetres":20.3,"colMetres":603.7,"osGridRef":"NY380143","latitude":54.520711,"longitude":-2.959051},{"number":2572,"name":"Hartsop Dodd","classification":"N,sSim,W,B,Sy,Fel","isWainwright":true,"heightMetres":619.0,"heightFeet":2031,"dropMetres":25.0,"colMetres":594.0,"osGridRef":"NY411118","latitude":54.498538,"longitude":-2.910448},{"number":2573,"name":"Heron Pike (Rydal)","classification":"N,sSim,W,B,Sy","isWainwright":true,"heightMetres":612.0,"heightFeet":2008,"dropMetres":21.0,"colMetres":591.0,"osGridRef":"NY355083","latitude":54.466072,"longitude":-2.995142},{"number":2574,"name":"Shipman Knotts","classification":"W,B,Sy,Fel","isWainwright":true,"heightMetres":587.0,"heightFeet":1926,"dropMetres":11.0,"colMetres":576.0,"osGridRef":"NY472062","latitude":54.448577,"longitude":-2.814707},{"number":2577,"name":"The Nab","classification":"5,Dew,W,B,Sy","isWainwright":true,"heightMetres":576.0,"heightFeet":1890,"dropMetres":61.0,"colMetres":515.0,"osGridRef":"NY434151","latitude":54.528893,"longitude":-2.875675},{"number":2578,"name":"Hartsop Above How [Gill Crag - Hartsop Above How]","classification":"s5,W,B,Sy,Fel","isWainwright":true,"heightMetres":586.1,"heightFeet":1923,"dropMetres":29.5,"colMetres":556.7,"osGridRef":"NY383120","latitude":54.499595,"longitude":-2.953955},{"number":2579,"name":"Angletarn Pikes [Angletarn Pikes North Top]","classification":"5,Dew,W,B,Sy,Fel","isWainwright":true,"heightMetres":567.0,"heightFeet":1860,"dropMetres":78.0,"colMetres":489.0,"osGridRef":"NY413148","latitude":54.525312,"longitude":-2.907984},{"number":2582,"name":"Brock Crags (Wainwright)","classification":"W,B,Sy,Fel","isWainwright":true,"heightMetres":561.2,"heightFeet":1841,"dropMetres":9.9,"colMetres":551.3,"osGridRef":"NY416136","latitude":54.514891,"longitude":-2.902593},{"number":2583,"name":"Great Mell Fell","classification":"Ma,5,Dew,W,B,Sy,Fel","isWainwright":true,"heightMetres":537.0,"heightFeet":1762,"dropMetres":198.0,"colMetres":339.0,"osGridRef":"NY396253","latitude":54.619846,"longitude":-2.935641},{"number":2584,"name":"Arthur's Pike","classification":"W,B,Sy,Fel","isWainwright":true,"heightMetres":533.0,"heightFeet":1749,"dropMetres":4.0,"colMetres":529.0,"osGridRef":"NY460206","latitude":54.578426,"longitude":-2.835799},{"number":2588,"name":"Bonscale Pike","classification":"W,B,Sy,Fel","isWainwright":true,"heightMetres":524.0,"heightFeet":1719,"dropMetres":1.0,"colMetres":523.0,"osGridRef":"NY453200","latitude":54.573028,"longitude":-2.846935},{"number":2589,"name":"High Hartsop Dodd","classification":"W,B,Sy,Fel","isWainwright":true,"heightMetres":519.0,"heightFeet":1703,"dropMetres":3.0,"colMetres":516.0,"osGridRef":"NY393107","latitude":54.488623,"longitude":-2.937691},{"number":2590,"name":"Sallows","classification":"5,Dew,W,B,Sy,Fel","isWainwright":true,"heightMetres":516.0,"heightFeet":1693,"dropMetres":69.0,"colMetres":447.0,"osGridRef":"NY436039","latitude":54.428122,"longitude":-2.869995},{"number":2595,"name":"Beda Fell [Beda Head]","classification":"5,Dew,W,B,Sy,Fel","isWainwright":true,"heightMetres":509.0,"heightFeet":1670,"dropMetres":61.0,"colMetres":448.0,"osGridRef":"NY428171","latitude":54.54649,"longitude":-2.884399},{"number":2596,"name":"Low Pike","classification":"W,B,Sy,Fel","isWainwright":true,"heightMetres":508.0,"heightFeet":1667,"dropMetres":18.0,"colMetres":490.0,"osGridRef":"NY373078","latitude":54.462069,"longitude":-2.967985},{"number":2598,"name":"Little Mell Fell","classification":"Ma,5,Dew,W,B,Sy,Fel","isWainwright":true,"heightMetres":505.0,"heightFeet":1657,"dropMetres":226.0,"colMetres":279.0,"osGridRef":"NY423240","latitude":54.608024,"longitude":-2.894465},{"number":2601,"name":"Stone Arthur","classification":"W,B,Sy,Fel","isWainwright":true,"heightMetres":504.0,"heightFeet":1654,"dropMetres":3.0,"colMetres":501.0,"osGridRef":"NY347092","latitude":54.474276,"longitude":-3.008366},{"number":2607,"name":"Baystones [Wansfell]","classification":"Hu,4,sMa,W,Fel","isWainwright":true,"heightMetres":486.9,"heightFeet":1597,"dropMetres":147.7,"colMetres":339.2,"osGridRef":"NY403051","latitude":54.438194,"longitude":-2.921751},{"number":2609,"name":"Sour Howes","classification":"4,W,B,Sy","isWainwright":true,"heightMetres":483.0,"heightFeet":1585,"dropMetres":35.0,"colMetres":448.0,"osGridRef":"NY427032","latitude":54.421166,"longitude":-2.883595},{"number":2610,"name":"Gowbarrow Fell (Wainwright summit)","classification":"W,B,Sy,Fel","isWainwright":true,"heightMetres":481.2,"heightFeet":1579,"dropMetres":9.0,"colMetres":472.0,"osGridRef":"NY407218","latitude":54.58811,"longitude":-2.918201},{"number":2611,"name":"Nab Scar","classification":"W,B,Sy,Fel","isWainwright":true,"heightMetres":450.0,"heightFeet":1476,"dropMetres":2.0,"colMetres":448.0,"osGridRef":"NY355072","latitude":54.456414,"longitude":-2.995849},{"number":2612,"name":"Glenridding Dodd","classification":"4,W,B,Sy,Fel","isWainwright":true,"heightMetres":442.0,"heightFeet":1450,"dropMetres":45.0,"colMetres":397.0,"osGridRef":"NY380175","latitude":54.54947,"longitude":-2.959246},{"number":2614,"name":"Arnison Crag","classification":"4,W,B,Sy,Fel","isWainwright":true,"heightMetres":433.0,"heightFeet":1421,"dropMetres":32.0,"colMetres":401.0,"osGridRef":"NY393149","latitude":54.526364,"longitude":-2.938524},{"number":2615,"name":"Steel Knotts [Pikeawassa - Steel Knotts]","classification":"4,W,B,Sy,Fel","isWainwright":true,"heightMetres":432.0,"heightFeet":1417,"dropMetres":51.0,"colMetres":381.0,"osGridRef":"NY440181","latitude":54.555245,"longitude":-2.866807},{"number":2623,"name":"Hallin Fell","classification":"Ma,3,W,B,Sy,Fel","isWainwright":true,"heightMetres":388.0,"heightFeet":1273,"dropMetres":161.0,"colMetres":226.6,"osGridRef":"NY433198","latitude":54.570412,"longitude":-2.878498},{"number":2626,"name":"Troutbeck Tongue","classification":"3,W,B,Sy,Fel","isWainwright":true,"heightMetres":364.0,"heightFeet":1194,"dropMetres":73.0,"colMetres":291.0,"osGridRef":"NY422064","latitude":54.449952,"longitude":-2.892312},{"number":2627,"name":"High Rigg [Naddle Fell]","classification":"Ma,3,W,B,Sy,Fel","isWainwright":true,"heightMetres":355.0,"heightFeet":1165,"dropMetres":186.0,"colMetres":169.0,"osGridRef":"NY308219","latitude":54.588432,"longitude":-3.071568},{"number":2634,"name":"The Old Man of Coniston [Coniston Old Man]","classification":"Ma,Sim,Hew,N,W,B,Sy,Fel,CoH","isWainwright":true,"heightMetres":802.4,"heightFeet":2633,"dropMetres":415.0,"colMetres":387.0,"osGridRef":"SD272978","latitude":54.370658,"longitude":-3.121445},{"number":2635,"name":"Swirl How","classification":"Hu,Sim,Hew,N,W,B,Sy,Fel","isWainwright":true,"heightMetres":802.4,"heightFeet":2633,"dropMetres":120.0,"colMetres":682.0,"osGridRef":"NY272005","latitude":54.395257,"longitude":-3.121515},{"number":2636,"name":"Brim Fell","classification":"N,W,B,Sy,Fel","isWainwright":true,"heightMetres":795.9,"heightFeet":2611,"dropMetres":19.6,"colMetres":776.4,"osGridRef":"SD270985","latitude":54.377283,"longitude":-3.124197},{"number":2637,"name":"Great Carrs","classification":"N,sSim,W,B,Sy,Fel","isWainwright":true,"heightMetres":785.0,"heightFeet":2575,"dropMetres":20.0,"colMetres":765.0,"osGridRef":"NY270009","latitude":54.398777,"longitude":-3.124738},{"number":2638,"name":"Dow Crag","classification":"Hu,Sim,Hew,N,W,B,Sy,Fel","isWainwright":true,"heightMetres":778.0,"heightFeet":2552,"dropMetres":129.0,"colMetres":649.0,"osGridRef":"SD262977","latitude":54.3703,"longitude":-3.136659},{"number":2639,"name":"Grey Friar","classification":"Sim,Hew,N,W,B,Sy,Fel","isWainwright":true,"heightMetres":773.0,"heightFeet":2536,"dropMetres":78.0,"colMetres":695.0,"osGridRef":"NY260003","latitude":54.393339,"longitude":-3.141054},{"number":2640,"name":"Wetherlam","classification":"Hu,Sim,Hew,N,sMa,W,B,Sy,Fel","isWainwright":true,"heightMetres":763.0,"heightFeet":2503,"dropMetres":145.0,"colMetres":618.0,"osGridRef":"NY288011","latitude":54.400488,"longitude":-3.097966},{"number":2643,"name":"Harter Fell (Eskdale)","classification":"Ma,Sim,Hew,N,W,B,Sy,Fel","isWainwright":true,"heightMetres":653.2,"heightFeet":2143,"dropMetres":273.5,"colMetres":379.8,"osGridRef":"SD218997","latitude":54.386916,"longitude":-3.204523},{"number":2655,"name":"Green Crag","classification":"Hu,4,sMa,W,B,Sy,Fel","isWainwright":true,"heightMetres":488.7,"heightFeet":1603,"dropMetres":142.4,"colMetres":346.3,"osGridRef":"SD200982","latitude":54.373706,"longitude":-3.232832},{"number":2673,"name":"Holme Fell","classification":"Ma,3,W,B,Sy,Fel","isWainwright":true,"heightMetres":316.0,"heightFeet":1037,"dropMetres":164.0,"colMetres":152.0,"osGridRef":"NY315006","latitude":54.396301,"longitude":-3.056527},{"number":3728,"name":"High Stile","classification":"W,B","isWainwright":true,"heightMetres":806.2,"heightFeet":2645,"dropMetres":8.9,"colMetres":797.3,"osGridRef":"NY167147","latitude":54.521578,"longitude":-3.287667}]